WKT,fid,Land,Typ,Bezeichnung,Leistung (MWp),Jahr der Inbetriebnahme,Breitengrad_HP,Längengrad_HP,PLZ
"POINT (9.45556515 54.05288612)",1.0,DE,PVA,Aasbüttel,118.0,2025.0,54.05288612,9.45556515,25560
"POINT (12.49180962 53.16138945)",2.0,DE,PVA,Alt Daber 1,37.0,2018.0,53.16138945,12.49180962,16909
"POINT (12.51653891 53.13405708)",3.0,DE,PVA,Alt Daber 2-4,172.0,2018.0,53.13405708,12.51653891,16909
"POINT (13.72899666 50.77357862)",4.0,DE,PVA,Altenberg,10.0,2019.0,50.77357862,13.72899666,01773
"POINT (13.72899666 50.77357862)",4.0,DE,PVA,Altenberg,10.0,2019.0,50.77357862,13.72899666,01773
"POINT (13.72899666 50.77357862)",4.0,DE,PVA,Altenberg,10.0,2019.0,50.77357862,13.72899666,01773
"POINT (13.72899666 50.77357862)",4.0,DE,PVA,Altenberg,10.0,2019.0,50.77357862,13.72899666,01773
"POINT (13.72899666 50.77357862)",4.0,DE,PVA,Altenberg,10.0,2019.0,50.77357862,13.72899666,01773
"POINT (13.72899666 50.77357862)",4.0,DE,PVA,Altenberg,10.0,2019.0,50.77357862,13.72899666,01773
"POINT (13.72899666 50.77357862)",4.0,DE,PVA,Altenberg,10.0,2019.0,50.77357862,13.72899666,01773
"POINT (13.72899666 50.77357862)",4.0,DE,PVA,Altenberg,10.0,2019.0,50.77357862,13.72899666,01773
"POINT (13.72899666 50.77357862)",4.0,DE,PVA,Altenberg,10.0,2019.0,50.77357862,13.72899666,01773
"POINT (13.2563426 53.69893517)",5.0,DE,PVA,Altentreptow,65.0,2022.0,53.69893517,13.2563426,17087
"POINT (12.49825943 51.3311756)",6.0,DE,PVA,Althen,735.0,2012.0,51.3311756,12.49825943,04319
"POINT (12.50162175 51.33301945)",7.0,DE,PVA,Althen 2,24.0,2018.0,51.33301945,12.50162175,04319
"POINT (14.03709195 53.0440527)",8.0,DE,PVA,Angermünde,174.0,2011.0,53.0440527,14.03709195,16278
"POINT (11.84569946 51.43665132)",9.0,DE,PVA,Angersdorf,685.0,2020.0,51.43665132,11.84569946,06179
"POINT (13.68705527 53.82500682)",10.0,DE,PVA,Anklam,126.0,2015.0,53.82500682,13.68705527,17389
"POINT (11.65292578 51.89090029)",11.0,DE,PVA,Atzendorf,145.0,2021.0,51.89090029,11.65292578,39443
"POINT (11.75826908 51.78234422)",12.0,DE,PVA,Baalberge,238.0,2019.0,51.78234422,11.75826908,06406
"POINT (11.74915829 51.78538115)",13.0,DE,PVA,Bernburg,10.0,2013.0,51.78538115,11.74915829,06406
"POINT (11.74915829 51.78538115)",13.0,DE,PVA,Bernburg,10.0,2013.0,51.78538115,11.74915829,06406
"POINT (11.74915829 51.78538115)",13.0,DE,PVA,Bernburg,10.0,2013.0,51.78538115,11.74915829,06406
"POINT (11.74915829 51.78538115)",13.0,DE,PVA,Bernburg,10.0,2013.0,51.78538115,11.74915829,06406
"POINT (11.74915829 51.78538115)",13.0,DE,PVA,Bernburg,10.0,2013.0,51.78538115,11.74915829,06406
"POINT (11.74915829 51.78538115)",13.0,DE,PVA,Bernburg,10.0,2013.0,51.78538115,11.74915829,06406
"POINT (11.74915829 51.78538115)",13.0,DE,PVA,Bernburg,10.0,2013.0,51.78538115,11.74915829,06406
"POINT (11.74915829 51.78538115)",13.0,DE,PVA,Bernburg,10.0,2013.0,51.78538115,11.74915829,06406
"POINT (11.74915829 51.78538115)",13.0,DE,PVA,Bernburg,10.0,2013.0,51.78538115,11.74915829,06406
"POINT (11.77085064 51.78277807)",18.0,DE,PVA,Bernburg 2,238.0,2016.0,51.78277807,11.77085064,06406
"POINT (14.08734676 51.28719623)",19.0,DE,PVA,Biehla,269.0,2014.0,51.28719623,14.08734676,01917
"POINT (10.83436779 51.03759049)",20.0,DE,PVA,Bienstädt,388.0,2016.0,51.03759049,10.83436779,99100
"POINT (9.87096582 53.91129005)",21.0,DE,PVA,Bimöhlen,1183.0,2023.0,53.91129005,9.87096582,24576
"POINT (12.32298244 51.60064762)",22.0,DE,PVA,Bitterfeld,848.0,2014.0,51.60064762,12.32298244,06808
"POINT (12.32298244 51.60064762)",22.0,DE,PVA,Bitterfeld,848.0,2014.0,51.60064762,12.32298244,06808
"POINT (12.68234714 54.12881304)",23.0,DE,PVA,Böhlendorf,1029.0,2020.0,54.12881304,12.68234714,18334
"POINT (12.68234714 54.12881304)",23.0,DE,PVA,Böhlendorf,1029.0,2020.0,54.12881304,12.68234714,18334
"POINT (12.68234714 54.12881304)",23.0,DE,PVA,Böhlendorf,1029.0,2020.0,54.12881304,12.68234714,18334
"POINT (12.68234714 54.12881304)",23.0,DE,PVA,Böhlendorf,1029.0,2020.0,54.12881304,12.68234714,18334
"POINT (12.68234714 54.12881304)",23.0,DE,PVA,Böhlendorf,1029.0,2020.0,54.12881304,12.68234714,18334
"POINT (12.68234714 54.12881304)",23.0,DE,PVA,Böhlendorf,1029.0,2020.0,54.12881304,12.68234714,18334
"POINT (12.68234714 54.12881304)",23.0,DE,PVA,Böhlendorf,1029.0,2020.0,54.12881304,12.68234714,18334
"POINT (12.68234714 54.12881304)",23.0,DE,PVA,Böhlendorf,1029.0,2020.0,54.12881304,12.68234714,18334
"POINT (12.68234714 54.12881304)",23.0,DE,PVA,Böhlendorf,1029.0,2020.0,54.12881304,12.68234714,18334
"POINT (9.827380036 54.2433594)",24.0,DE,PVA,Bokel,5.0,2021.0,54.2433594,9.827380036,24802
"POINT (9.827380036 54.2433594)",24.0,DE,PVA,Bokel,5.0,2021.0,54.2433594,9.827380036,24802
"POINT (9.827380036 54.2433594)",24.0,DE,PVA,Bokel,5.0,2021.0,54.2433594,9.827380036,24802
"POINT (9.827380036 54.2433594)",24.0,DE,PVA,Bokel,5.0,2021.0,54.2433594,9.827380036,24802
"POINT (9.436499952 54.57855271)",25.0,DE,PVA,Bollingstedt,98.0,2019.0,54.57855271,9.436499952,24855
"POINT (9.436499952 54.57855271)",25.0,DE,PVA,Bollingstedt,98.0,2019.0,54.57855271,9.436499952,24855
"POINT (9.436499952 54.57855271)",25.0,DE,PVA,Bollingstedt,98.0,2019.0,54.57855271,9.436499952,24855
"POINT (9.436499952 54.57855271)",25.0,DE,PVA,Bollingstedt,98.0,2019.0,54.57855271,9.436499952,24855
"POINT (9.436499952 54.57855271)",25.0,DE,PVA,Bollingstedt,98.0,2019.0,54.57855271,9.436499952,24855
"POINT (9.436499952 54.57855271)",25.0,DE,PVA,Bollingstedt,98.0,2019.0,54.57855271,9.436499952,24855
"POINT (9.436499952 54.57855271)",25.0,DE,PVA,Bollingstedt,98.0,2019.0,54.57855271,9.436499952,24855
"POINT (9.436499952 54.57855271)",25.0,DE,PVA,Bollingstedt,98.0,2019.0,54.57855271,9.436499952,24855
"POINT (9.436499952 54.57855271)",25.0,DE,PVA,Bollingstedt,98.0,2019.0,54.57855271,9.436499952,24855
"POINT (10.05835326 54.07694393)",26.0,DE,PVA,Bönebüttel,84.0,2023.0,54.07694393,10.05835326,24620
"POINT (10.05835326 54.07694393)",26.0,DE,PVA,Bönebüttel,84.0,2023.0,54.07694393,10.05835326,24620
"POINT (9.727992414 54.35539371)",27.0,DE,PVA,Borgstedt-Lehmbek,509.0,2025.0,54.35539371,9.727992414,24794
"POINT (9.727992414 54.35539371)",27.0,DE,PVA,Borgstedt-Lehmbek,509.0,2025.0,54.35539371,9.727992414,24794
"POINT (9.727992414 54.35539371)",27.0,DE,PVA,Borgstedt-Lehmbek,509.0,2025.0,54.35539371,9.727992414,24794
"POINT (9.727992414 54.35539371)",27.0,DE,PVA,Borgstedt-Lehmbek,509.0,2025.0,54.35539371,9.727992414,24794
"POINT (9.271825429 51.04483512)",28.0,DE,PVA,Borken,203.0,2020.0,51.04483512,9.271825429,34582
"POINT (10.92374699 53.26914279)",29.0,DE,PVA,Brahlstorf,547.0,2025.0,53.26914279,10.92374699,19273
"POINT (12.11014905 51.51965389)",30.0,DE,PVA,Braschwitz,799.0,2012.0,51.51965389,12.11014905,06188
"POINT (12.11014905 51.51965389)",30.0,DE,PVA,Braschwitz,799.0,2012.0,51.51965389,12.11014905,06188
"POINT (9.865340518 54.32971983)",31.0,DE,PVA,Bredenbek,9.0,2020.0,54.32971983,9.865340518,24796
"POINT (9.865340518 54.32971983)",31.0,DE,PVA,Bredenbek,9.0,2020.0,54.32971983,9.865340518,24796
"POINT (12.32804319 51.40428344)",32.0,DE,PVA,Breitenfeld,844.0,2012.0,51.40428344,12.32804319,04158
"POINT (12.32804319 51.40428344)",32.0,DE,PVA,Breitenfeld,844.0,2012.0,51.40428344,12.32804319,04158
"POINT (11.59038567 53.4070473)",33.0,DE,PVA,Brenz,187.0,2021.0,53.4070473,11.59038567,19306
"POINT (13.54008198 53.64862907)",34.0,DE,PVA,Bresewitz,745.0,2017.0,53.64862907,13.54008198,17098
"POINT (9.078971265 53.9948156)",35.0,DE,PVA,Brickeln,1346.0,2021.0,53.9948156,9.078971265,25693
"POINT (7.150998025 50.01013055)",36.0,DE,PVA,Briedel,3787.0,2024.0,50.01013055,7.150998025,56867
"POINT (11.27110004 53.67489044)",37.0,DE,PVA,Brüsewitz,55.0,2018.0,53.67489044,11.27110004,19071
"POINT (11.15772671 49.34503054)",38.0,DE,PVA,Bubenreuth,619.0,2017.0,49.34503054,11.15772671,90530
"POINT (9.107307963 50.28676692)",39.0,DE,PVA,Büdingen,248.0,2021.0,50.28676692,9.107307963,63654
"POINT (7.131943202 50.06186215)",40.0,DE,PVA,Bullay,588.0,2024.0,50.06186215,7.131943202,56859
"POINT (9.26231591 53.94164194)",41.0,DE,PVA,Büttel,3906.0,2023.0,53.94164194,9.26231591,25572
"POINT (9.268172846 53.93578501)",42.0,DE,PVA,Büttel 2,36.0,2023.0,53.93578501,9.268172846,25572
"POINT (13.6945754 51.82990369)",43.0,DE,PVA,Cahnsdorf,2409.0,2016.0,51.82990369,13.6945754,15926
"POINT (13.6945754 51.82990369)",43.0,DE,PVA,Cahnsdorf,2409.0,2016.0,51.82990369,13.6945754,15926
"POINT (12.90893799 50.81170592)",44.0,DE,PVA,Chemnitz,444.0,2012.0,50.81170592,12.90893799,09120
"POINT (10.23951814 51.51770018)",45.0,DE,PVA,Clausthal-Zellerfeld,1582.0,2021.0,51.51770018,10.23951814,37115
"POINT (11.45480121 51.86597787)",46.0,DE,PVA,Cochstedt,94.0,2014.0,51.86597787,11.45480121,39444
"POINT (11.63268948 52.27967188)",47.0,DE,PVA,Colbitz,239.0,2014.0,52.27967188,11.63268948,39326
"POINT (12.45760627 51.93960855)",48.0,DE,PVA,Coswig,75.0,2020.0,51.93960855,12.45760627,06869
"POINT (14.35795421 51.76416361)",49.0,DE,PVA,Cottbus,368.0,2011.0,51.76416361,14.35795421,03042
"POINT (10.82097887 51.86032)",50.0,DE,PVA,Danstedt,881.0,2022.0,51.86032,10.82097887,38855
"POINT (10.82097887 51.86032)",50.0,DE,PVA,Danstedt,881.0,2022.0,51.86032,10.82097887,38855
"POINT (9.52743062 54.1230568)",51.0,DE,PVA,Dätgen,999.0,2021.0,54.1230568,9.52743062,25575
"POINT (9.52743062 54.1230568)",51.0,DE,PVA,Dätgen,999.0,2021.0,54.1230568,9.52743062,25575
"POINT (9.52743062 54.1230568)",51.0,DE,PVA,Dätgen,999.0,2021.0,54.1230568,9.52743062,25575
"POINT (9.52743062 54.1230568)",51.0,DE,PVA,Dätgen,999.0,2021.0,54.1230568,9.52743062,25575
"POINT (9.52743062 54.1230568)",51.0,DE,PVA,Dätgen,999.0,2021.0,54.1230568,9.52743062,25575
"POINT (9.52743062 54.1230568)",51.0,DE,PVA,Dätgen,999.0,2021.0,54.1230568,9.52743062,25575
"POINT (9.52743062 54.1230568)",51.0,DE,PVA,Dätgen,999.0,2021.0,54.1230568,9.52743062,25575
"POINT (9.52743062 54.1230568)",51.0,DE,PVA,Dätgen,999.0,2021.0,54.1230568,9.52743062,25575
"POINT (9.52743062 54.1230568)",51.0,DE,PVA,Dätgen,999.0,2021.0,54.1230568,9.52743062,25575
"POINT (12.35403946 51.51419736)",52.0,DE,PVA,Delitzsch,3209.0,2012.0,51.51419736,12.35403946,04509
"POINT (12.36705488 51.51159428)",53.0,DE,PVA,Delitzsch-Ziehwerk,178.0,2013.0,51.51159428,12.36705488,04509
"POINT (10.09333774 50.83003327)",54.0,DE,PVA,Dietlas,564.0,2014.0,50.83003327,10.09333774,36460
"POINT (11.16875138 51.80171676)",55.0,DE,PVA,Ditfurt,125.0,2015.0,51.80171676,11.16875138,06484
"POINT (11.1882745 51.79954753)",56.0,DE,PVA,Ditfurt 2,638.0,2024.0,51.79954753,11.1882745,06484
"POINT (11.96392735 50.28731463)",57.0,DE,PVA,Döhlau,1823.0,2019.0,50.28731463,11.96392735,95182
"POINT (12.22138094 51.39843302)",58.0,DE,PVA,Dölzig,441.0,2013.0,51.39843302,12.22138094,04435
"POINT (11.84569946 51.44164056)",59.0,DE,PVA,Dornstedt,75.0,2018.0,51.44164056,11.84569946,06179
"POINT (11.84678407 51.44641288)",60.0,DE,PVA,Dornstedt 2,183.0,2021.0,51.44641288,11.84678407,06179
"POINT (12.78590218 54.11529399)",61.0,DE,PVA,Drechow,742.0,2019.0,54.11529399,12.78590218,18465
"POINT (13.89100998 53.28898779)",62.0,DE,PVA,Drense,65.0,2024.0,53.28898779,13.89100998,17291
"POINT (9.352878974 53.71797252)",63.0,DE,PVA,Drochtersen,775.0,2017.0,53.71797252,9.352878974,21706
"POINT (9.352878974 53.71797252)",63.0,DE,PVA,Drochtersen,775.0,2017.0,53.71797252,9.352878974,21706
"POINT (6.512630663 50.78941049)",64.0,DE,PVA,Düren 2,1773.0,2023.0,50.78941049,6.512630663,52351
"POINT (14.09084979 51.9967102)",65.0,DE,PVA,Dürrenhofe,169.0,2021.0,51.9967102,14.09084979,15913
"POINT (14.07620745 51.98792479)",66.0,DE,PVA,Dürrenhofe 2,117.0,2023.0,51.98792479,14.07620745,15913
"POINT (14.06200003 51.04429879)",67.0,DE,PVA,Dürrröhrsdorf,19.0,2013.0,51.04429879,14.06200003,01833
"POINT (10.71332833 50.0932211)",68.0,DE,PVA,Ebern-Fischbach,1939.0,2021.0,50.0932211,10.71332833,96106
"POINT (10.73233983 50.14960855)",69.0,DE,PVA,Ebern-Herbelsdorf,1895.0,2021.0,50.14960855,10.73233983,96176
"POINT (10.70389215 50.08899109)",70.0,DE,PVA,Ebern-Heubach,2069.0,2021.0,50.08899109,10.70389215,96106
"POINT (9.350529711 54.59610064)",71.0,DE,PVA,Eggebek,563.0,2023.0,54.59610064,9.350529711,24852
"POINT (9.350529711 54.59610064)",72.0,DE,PVA,Eggebek 3.1/3.2,143.0,2024.0,54.59610064,9.350529711,24852
"POINT (9.350529711 54.59610064)",73.0,DE,PVA,Eggebek 3.2 (Arealnetz),54.0,2025.0,54.59610064,9.350529711,24852
"POINT (14.10889273 53.66550893)",74.0,DE,PVA,Eggesin,147.0,2022.0,53.66550893,14.10889273,17367
"POINT (14.10889273 53.66550893)",74.0,DE,PVA,Eggesin,147.0,2022.0,53.66550893,14.10889273,17367
"POINT (14.10889273 53.66550893)",74.0,DE,PVA,Eggesin,147.0,2022.0,53.66550893,14.10889273,17367
"POINT (14.09229807 53.6684374)",75.0,DE,PVA,Eggesin 3,105.0,2023.0,53.6684374,14.09229807,17367
"POINT (9.894441871 54.07378038)",76.0,DE,PVA,Ehndorf,2078.0,2023.0,54.07378038,9.894441871,24647
"POINT (10.28657699 50.99171912)",77.0,DE,PVA,Eisenach,334.0,2013.0,50.99171912,10.28657699,99817
"POINT (9.883082604 54.18039725)",78.0,DE,PVA,Ellerdorf,965.0,2018.0,54.18039725,9.883082604,24589
"POINT (9.883082604 54.18039725)",78.0,DE,PVA,Ellerdorf,965.0,2018.0,54.18039725,9.883082604,24589
"POINT (9.883082604 54.18039725)",78.0,DE,PVA,Ellerdorf,965.0,2018.0,54.18039725,9.883082604,24589
"POINT (9.883082604 54.18039725)",78.0,DE,PVA,Ellerdorf,965.0,2018.0,54.18039725,9.883082604,24589
"POINT (9.883082604 54.18039725)",78.0,DE,PVA,Ellerdorf,965.0,2018.0,54.18039725,9.883082604,24589
"POINT (9.883082604 54.18039725)",78.0,DE,PVA,Ellerdorf,965.0,2018.0,54.18039725,9.883082604,24589
"POINT (9.883082604 54.18039725)",78.0,DE,PVA,Ellerdorf,965.0,2018.0,54.18039725,9.883082604,24589
"POINT (9.883082604 54.18039725)",78.0,DE,PVA,Ellerdorf,965.0,2018.0,54.18039725,9.883082604,24589
"POINT (9.883082604 54.18039725)",78.0,DE,PVA,Ellerdorf,965.0,2018.0,54.18039725,9.883082604,24589
"POINT (9.828966289 54.24567777)",79.0,DE,PVA,Emkendorf,434.0,2018.0,54.24567777,9.828966289,24802
"POINT (9.830796582 54.24299334)",80.0,DE,PVA,Emkendorf Nord 1.1,38.0,2024.0,54.24299334,9.830796582,24802
"POINT (9.826913574 54.24283542)",81.0,DE,PVA,Emkendorf Nord 1.2,139.0,2025.0,54.24283542,9.826913574,24802
"POINT (8.959556618 54.69015226)",82.0,DE,PVA,Enge Sande,84.0,2023.0,54.69015226,8.959556618,25842
"POINT (8.959556618 54.69015226)",82.0,DE,PVA,Enge Sande,84.0,2023.0,54.69015226,8.959556618,25842
"POINT (7.328517101 53.46735386)",83.0,DE,PVA,Engerhafe 1+2,1126.0,2019.0,53.46735386,7.328517101,26624
"POINT (7.328517101 53.46735386)",83.0,DE,PVA,Engerhafe 1+2,1126.0,2019.0,53.46735386,7.328517101,26624
"POINT (7.328517101 53.46735386)",83.0,DE,PVA,Engerhafe 1+2,1126.0,2019.0,53.46735386,7.328517101,26624
"POINT (11.0336375 50.99849119)",84.0,DE,PVA,Erfurt Ilversgehofen,844.0,2023.0,50.99849119,11.0336375,99086
"POINT (11.0336375 50.99849119)",84.0,DE,PVA,Erfurt Ilversgehofen,844.0,2023.0,50.99849119,11.0336375,99086
"POINT (12.08949808 51.38530793)",85.0,DE,PVA,Ermlitz 1+2,1074.0,2016.0,51.38530793,12.08949808,06258
"POINT (12.08949808 51.38530793)",85.0,DE,PVA,Ermlitz 1+2,1074.0,2016.0,51.38530793,12.08949808,06258
"POINT (12.08949808 51.38530793)",85.0,DE,PVA,Ermlitz 1+2,1074.0,2016.0,51.38530793,12.08949808,06258
"POINT (9.927270888 54.30311268)",86.0,DE,PVA,Felde,989.0,2019.0,54.30311268,9.927270888,24242
"POINT (9.927270888 54.30311268)",86.0,DE,PVA,Felde,989.0,2019.0,54.30311268,9.927270888,24242
"POINT (9.927270888 54.30311268)",86.0,DE,PVA,Felde,989.0,2019.0,54.30311268,9.927270888,24242
"POINT (9.927270888 54.30311268)",86.0,DE,PVA,Felde,989.0,2019.0,54.30311268,9.927270888,24242
"POINT (9.927270888 54.30311268)",86.0,DE,PVA,Felde,989.0,2019.0,54.30311268,9.927270888,24242
"POINT (9.927270888 54.30311268)",86.0,DE,PVA,Felde,989.0,2019.0,54.30311268,9.927270888,24242
"POINT (9.927270888 54.30311268)",86.0,DE,PVA,Felde,989.0,2019.0,54.30311268,9.927270888,24242
"POINT (9.927270888 54.30311268)",86.0,DE,PVA,Felde,989.0,2019.0,54.30311268,9.927270888,24242
"POINT (9.927270888 54.30311268)",86.0,DE,PVA,Felde,989.0,2019.0,54.30311268,9.927270888,24242
"POINT (10.3342094 49.17281022)",87.0,DE,PVA,Feuchtwangen,501.0,2018.0,49.17281022,10.3342094,91555
"POINT (10.3342094 49.17281022)",87.0,DE,PVA,Feuchtwangen,501.0,2018.0,49.17281022,10.3342094,91555
"POINT (10.3342094 49.17281022)",87.0,DE,PVA,Feuchtwangen,501.0,2018.0,49.17281022,10.3342094,91555
"POINT (10.3342094 49.17281022)",87.0,DE,PVA,Feuchtwangen,501.0,2018.0,49.17281022,10.3342094,91555
"POINT (12.42561694 53.35683277)",88.0,DE,PVA,Fincken,447.0,2018.0,53.35683277,12.42561694,17209
"POINT (12.1722214 52.38254746)",89.0,DE,PVA,Fischbeck,719.0,2021.0,52.38254746,12.1722214,39307
"POINT (8.887426253 54.86297233)",90.0,DE,PVA,Flützholm,1597.0,2022.0,54.86297233,8.887426253,25923
"POINT (11.64511653 51.88135565)",91.0,DE,PVA,Förderstedt,413.0,2021.0,51.88135565,11.64511653,39443
"POINT (11.68089433 51.12898873)",92.0,DE,PVA,Fränkenau,588.0,2013.0,51.12898873,11.68089433,06628
"POINT (11.93017933 51.31332353)",93.0,DE,PVA,Frankleben 1+2,195.0,2019.0,51.31332353,11.93017933,06259
"POINT (10.54880266 50.90994533)",94.0,DE,PVA,Fröttstädt,163.0,2020.0,50.90994533,10.54880266,99880
"POINT (14.05606639 52.37577363)",95.0,DE,PVA,Fürstenwalde,999.0,2014.0,52.37577363,14.05606639,15517
"POINT (14.05606639 52.37577363)",95.0,DE,PVA,Fürstenwalde,999.0,2014.0,52.37577363,14.05606639,15517
"POINT (14.05606639 52.37577363)",95.0,DE,PVA,Fürstenwalde,999.0,2014.0,52.37577363,14.05606639,15517
"POINT (14.05606639 52.37577363)",95.0,DE,PVA,Fürstenwalde,999.0,2014.0,52.37577363,14.05606639,15517
"POINT (14.05606639 52.37577363)",95.0,DE,PVA,Fürstenwalde,999.0,2014.0,52.37577363,14.05606639,15517
"POINT (14.05606639 52.37577363)",95.0,DE,PVA,Fürstenwalde,999.0,2014.0,52.37577363,14.05606639,15517
"POINT (14.05606639 52.37577363)",95.0,DE,PVA,Fürstenwalde,999.0,2014.0,52.37577363,14.05606639,15517
"POINT (14.05606639 52.37577363)",95.0,DE,PVA,Fürstenwalde,999.0,2014.0,52.37577363,14.05606639,15517
"POINT (14.05606639 52.37577363)",95.0,DE,PVA,Fürstenwalde,999.0,2014.0,52.37577363,14.05606639,15517
"POINT (12.24007722 53.45867884)",96.0,DE,PVA,Gaarz,904.0,2021.0,53.45867884,12.24007722,19395
"POINT (13.68188537 51.82599906)",97.0,DE,PVA,Gahro,2744.0,2011.0,51.82599906,13.68188537,15926
"POINT (11.42269436 52.50182447)",98.0,DE,PVA,Gardelegen,485.0,2022.0,52.50182447,11.42269436,39638
"POINT (11.42269436 52.50182447)",98.0,DE,PVA,Gardelegen,485.0,2022.0,52.50182447,11.42269436,39638
"POINT (11.42269436 52.50182447)",98.0,DE,PVA,Gardelegen,485.0,2022.0,52.50182447,11.42269436,39638
"POINT (11.42269436 52.50182447)",98.0,DE,PVA,Gardelegen,485.0,2022.0,52.50182447,11.42269436,39638
"POINT (12.00040613 50.32570125)",99.0,DE,PVA,Gattendorf,1364.0,2014.0,50.32570125,12.00040613,95185
"POINT (11.99568804 50.32846703)",100.0,DE,PVA,Gattendorf 3,602.0,2019.0,50.32846703,11.99568804,95185
"POINT (10.98863093 50.63690162)",101.0,DE,PVA,Gehren,278.0,2016.0,50.63690162,10.98863093,98694
"POINT (10.45993299 53.92469694)",102.0,DE,PVA,Geschendorf,97.0,2025.0,53.92469694,10.45993299,23815
"POINT (11.71838421 53.89465968)",103.0,DE,PVA,Glasin-Fuchsberg,199.0,2016.0,53.89465968,11.71838421,23992
"POINT (13.20714508 52.2138036)",104.0,DE,PVA,Glau,8.0,2014.0,52.2138036,13.20714508,14959
"POINT (13.20714508 52.2138036)",104.0,DE,PVA,Glau,8.0,2014.0,52.2138036,13.20714508,14959
"POINT (12.22832249 51.39669764)",105.0,DE,PVA,Glesien,479.0,2013.0,51.39669764,12.22832249,04435
"POINT (12.22832249 51.39669764)",105.0,DE,PVA,Glesien,479.0,2013.0,51.39669764,12.22832249,04435
"POINT (12.22832249 51.39669764)",105.0,DE,PVA,Glesien,479.0,2013.0,51.39669764,12.22832249,04435
"POINT (12.22832249 51.39669764)",105.0,DE,PVA,Glesien,479.0,2013.0,51.39669764,12.22832249,04435
"POINT (9.555520995 54.83476909)",106.0,DE,PVA,Glücksburg,147.0,2016.0,54.83476909,9.555520995,24960
"POINT (11.41626939 51.44103313)",107.0,DE,PVA,Gnölbzig,327.0,2015.0,51.44103313,11.41626939,06542
"POINT (9.287982529 54.08016816)",108.0,DE,PVA,Gokels,1181.0,2021.0,54.08016816,9.287982529,25725
"POINT (12.0540544 51.71498051)",109.0,DE,PVA,Gölzau,216.0,2020.0,51.71498051,12.0540544,06369
"POINT (14.9802804 51.18911083)",110.0,DE,PVA,Görlitz,604.0,2014.0,51.18911083,14.9802804,02828
"POINT (14.97442347 51.1920393)",111.0,DE,PVA,Görlitz 3,13.0,2015.0,51.1920393,14.97442347,02828
"POINT (14.98101252 51.19350353)",112.0,DE,PVA,Görlitz 5,75.0,2019.0,51.19350353,14.98101252,02828
"POINT (13.06459978 50.74401191)",113.0,DE,PVA,Gornau,182.0,2020.0,50.74401191,13.06459978,09405
"POINT (11.58528592 53.23132851)",114.0,DE,PVA,Grabow,734.0,2016.0,53.23132851,11.58528592,19300
"POINT (12.46702016 51.73058372)",115.0,DE,PVA,Gräfenhainichen,9.0,2018.0,51.73058372,12.46702016,06773
"POINT (7.293634413 50.0047655)",116.0,DE,PVA,Grenderich EEG,2029.0,2024.0,50.0047655,7.293634413,56858
"POINT (7.296562881 49.99532932)",117.0,DE,PVA,Grenderich PPA,91.0,2024.0,49.99532932,7.296562881,56858
"POINT (7.296562881 49.99532932)",117.0,DE,PVA,Grenderich PPA,91.0,2024.0,49.99532932,7.296562881,56858
"POINT (12.54837745 53.73787627)",118.0,DE,PVA,Groß Roge,916.0,2017.0,53.73787627,12.54837745,17166
"POINT (12.54837745 53.73787627)",118.0,DE,PVA,Groß Roge,916.0,2017.0,53.73787627,12.54837745,17166
"POINT (9.826913574 54.24283542)",119.0,DE,PVA,Groß Vollstedt,167.0,2025.0,54.24283542,9.826913574,24802
"POINT (10.49552825 51.12179399)",120.0,DE,PVA,Großengottern,211.0,2011.0,51.12179399,10.49552825,99991
"POINT (11.3749697 51.59472031)",121.0,DE,PVA,Großörner,542.0,2017.0,51.59472031,11.3749697,06343
"POINT (11.3749697 51.59472031)",121.0,DE,PVA,Großörner,542.0,2017.0,51.59472031,11.3749697,06343
"POINT (11.3749697 51.59472031)",121.0,DE,PVA,Großörner,542.0,2017.0,51.59472031,11.3749697,06343
"POINT (11.3749697 51.59472031)",121.0,DE,PVA,Großörner,542.0,2017.0,51.59472031,11.3749697,06343
"POINT (11.38082664 51.60448187)",122.0,DE,PVA,Großörner-Deponie,544.0,2019.0,51.60448187,11.38082664,06343
"POINT (11.38082664 51.60448187)",122.0,DE,PVA,Großörner-Deponie,544.0,2019.0,51.60448187,11.38082664,06343
"POINT (11.38082664 51.60448187)",122.0,DE,PVA,Großörner-Deponie,544.0,2019.0,51.60448187,11.38082664,06343
"POINT (11.38082664 51.60448187)",122.0,DE,PVA,Großörner-Deponie,544.0,2019.0,51.60448187,11.38082664,06343
"POINT (11.37399355 51.58495875)",123.0,DE,PVA,Großörner-Hüttenberg,225.0,2019.0,51.58495875,11.37399355,06343
"POINT (13.1190245 52.99066112)",124.0,DE,PVA,Großwoltersdorf,5.0,2022.0,52.99066112,13.1190245,16775
"POINT (13.1190245 52.99066112)",124.0,DE,PVA,Großwoltersdorf,5.0,2022.0,52.99066112,13.1190245,16775
"POINT (13.1190245 52.99066112)",124.0,DE,PVA,Großwoltersdorf,5.0,2022.0,52.99066112,13.1190245,16775
"POINT (13.1190245 52.99066112)",124.0,DE,PVA,Großwoltersdorf,5.0,2022.0,52.99066112,13.1190245,16775
"POINT (9.82872225 54.23982083)",125.0,DE,PVA,Grotenheid,114.0,2019.0,54.23982083,9.82872225,24802
"POINT (9.82872225 54.23982083)",125.0,DE,PVA,Grotenheid,114.0,2019.0,54.23982083,9.82872225,24802
"POINT (9.82872225 54.23982083)",125.0,DE,PVA,Grotenheid,114.0,2019.0,54.23982083,9.82872225,24802
"POINT (8.942575229 50.62239505)",126.0,DE,PVA,Grünberg,361.0,2021.0,50.62239505,8.942575229,35305
"POINT (11.60340885 51.78578866)",127.0,DE,PVA,Güsten,297.0,2015.0,51.78578866,11.60340885,39439
"POINT (12.19037914 53.79373804)",128.0,DE,PVA,Güstrow,41.0,2014.0,53.79373804,12.19037914,18273
"POINT (12.19395838 53.79211112)",129.0,DE,PVA,Güstrow Ost,104.0,2018.0,53.79211112,12.19395838,18273
"POINT (10.68151538 50.19276257)",130.0,DE,PVA,Hafenpreppach,1773.0,2024.0,50.19276257,10.68151538,96126
"POINT (14.95601983 51.10571775)",131.0,DE,PVA,Hagenwerder,135.0,2015.0,51.10571775,14.95601983,02827
"POINT (7.291682101 50.00883282)",132.0,DE,PVA,Haserich,256.0,2024.0,50.00883282,7.291682101,56858
"POINT (12.16546156 52.81042108)",133.0,DE,PVA,Havelberg,11.0,2021.0,52.81042108,12.16546156,39539
"POINT (12.66835928 51.14060581)",134.0,DE,PVA,Heinersdorf,708.0,2010.0,51.14060581,12.66835928,04651
"POINT (13.34358864 53.62552053)",135.0,DE,PVA,Hellfeld,15.0,2013.0,53.62552053,13.34358864,17039
"POINT (10.80768347 51.49866762)",136.0,DE,PVA,Hesserode,297.0,2015.0,51.49866762,10.80768347,99734
"POINT (10.80182653 51.49232261)",137.0,DE,PVA,Hesserode 2,93.0,2020.0,51.49232261,10.80182653,99734
"POINT (10.81183213 51.50013186)",138.0,DE,PVA,Hesserode 3,5.0,2022.0,51.50013186,10.81183213,99734
"POINT (11.50371281 51.64468434)",139.0,DE,PVA,Hettstedt,286.0,2017.0,51.64468434,11.50371281,06333
"POINT (13.20893537 54.18906444)",140.0,DE,PVA,Hildebrandshagen,992.0,2015.0,54.18906444,13.20893537,18519
"POINT (13.20893537 54.18906444)",140.0,DE,PVA,Hildebrandshagen,992.0,2015.0,54.18906444,13.20893537,18519
"POINT (13.20893537 54.18906444)",140.0,DE,PVA,Hildebrandshagen,992.0,2015.0,54.18906444,13.20893537,18519
"POINT (13.20893537 54.18906444)",140.0,DE,PVA,Hildebrandshagen,992.0,2015.0,54.18906444,13.20893537,18519
"POINT (13.20893537 54.18906444)",140.0,DE,PVA,Hildebrandshagen,992.0,2015.0,54.18906444,13.20893537,18519
"POINT (13.20893537 54.18906444)",140.0,DE,PVA,Hildebrandshagen,992.0,2015.0,54.18906444,13.20893537,18519
"POINT (13.20893537 54.18906444)",140.0,DE,PVA,Hildebrandshagen,992.0,2015.0,54.18906444,13.20893537,18519
"POINT (13.20893537 54.18906444)",140.0,DE,PVA,Hildebrandshagen,992.0,2015.0,54.18906444,13.20893537,18519
"POINT (13.20893537 54.18906444)",140.0,DE,PVA,Hildebrandshagen,992.0,2015.0,54.18906444,13.20893537,18519
"POINT (11.26774476 52.23676686)",141.0,DE,PVA,Hillersleben 1+2,1899.0,2014.0,52.23676686,11.26774476,39343
"POINT (11.01037143 50.10484049)",142.0,DE,PVA,Hochstadt-Obersdorf,1468.0,2021.0,50.10484049,11.01037143,96231
"POINT (11.01037143 50.10484049)",142.0,DE,PVA,Hochstadt-Obersdorf,1468.0,2021.0,50.10484049,11.01037143,96231
"POINT (11.01037143 50.10484049)",142.0,DE,PVA,Hochstadt-Obersdorf,1468.0,2021.0,50.10484049,11.01037143,96231
"POINT (11.00158602 50.10223741)",143.0,DE,PVA,Hochstadt-Wolfsloch,863.0,2021.0,50.10223741,11.00158602,96231
"POINT (11.00158602 50.10223741)",143.0,DE,PVA,Hochstadt-Wolfsloch,863.0,2021.0,50.10223741,11.00158602,96231
"POINT (11.6576981 51.88092181)",144.0,DE,PVA,Hohenerxleben,125.0,2014.0,51.88092181,11.6576981,39443
"POINT (12.0698785 52.66066068)",145.0,DE,PVA,Hohengöhren 1+2,375.0,2014.0,52.66066068,12.0698785,39524
"POINT (12.06597388 52.6733507)",146.0,DE,PVA,Hohengöhren 3,162.0,2015.0,52.6733507,12.06597388,39524
"POINT (13.90630309 53.29517012)",147.0,DE,PVA,Hohengüstow,156.0,2022.0,53.29517012,13.90630309,17291
"POINT (10.67293653 50.85796601)",148.0,DE,PVA,Hohenkirchen,511.0,2019.0,50.85796601,10.67293653,99887
"POINT (10.67293653 50.85796601)",148.0,DE,PVA,Hohenkirchen,511.0,2019.0,50.85796601,10.67293653,99887
"POINT (10.67293653 50.85796601)",148.0,DE,PVA,Hohenkirchen,511.0,2019.0,50.85796601,10.67293653,99887
"POINT (10.67293653 50.85796601)",148.0,DE,PVA,Hohenkirchen,511.0,2019.0,50.85796601,10.67293653,99887
"POINT (12.11513829 51.51640004)",149.0,DE,PVA,Hohenthurm,214.0,2012.0,51.51640004,12.11513829,06188
"POINT (11.57754187 53.96529979)",150.0,DE,PVA,Hornstorf Nord,143.0,2023.0,53.96529979,11.57754187,23974
"POINT (11.60189391 53.899163)",151.0,DE,PVA,Hornstorf Süd,128.0,2022.0,53.899163,11.60189391,23970
"POINT (10.43491706 50.99043137)",152.0,DE,PVA,Hörselberg-Hainich,458.0,2015.0,50.99043137,10.43491706,99820
"POINT (10.43491706 50.99043137)",152.0,DE,PVA,Hörselberg-Hainich,458.0,2015.0,50.99043137,10.43491706,99820
"POINT (10.43491706 50.99043137)",152.0,DE,PVA,Hörselberg-Hainich,458.0,2015.0,50.99043137,10.43491706,99820
"POINT (10.43491706 50.99043137)",152.0,DE,PVA,Hörselberg-Hainich,458.0,2015.0,50.99043137,10.43491706,99820
"POINT (7.306450823 52.09996201)",153.0,DE,PVA,Horstmar,636.0,2020.0,52.09996201,7.306450823,48612
"POINT (9.558257566 54.75612746)",154.0,DE,PVA,Husby,94.0,2020.0,54.75612746,9.558257566,24975
"POINT (9.558257566 54.75612746)",154.0,DE,PVA,Husby,94.0,2020.0,54.75612746,9.558257566,24975
"POINT (11.85839392 49.92489755)",155.0,DE,PVA,Immenreuth,576.0,2014.0,49.92489755,11.85839392,95505
"POINT (13.30344782 53.89654262)",156.0,DE,PVA,Jarmen,595.0,2020.0,53.89654262,13.30344782,17126
"POINT (14.00224594 53.51463065)",157.0,DE,PVA,Jatznick,276.0,2013.0,53.51463065,14.00224594,17309
"POINT (11.47625896 49.12480386)",158.0,DE,PVA,Kallmünz-Effenricht,10.0,2019.0,49.12480386,11.47625896,92334
"POINT (11.47625896 49.12480386)",158.0,DE,PVA,Kallmünz-Effenricht,10.0,2019.0,49.12480386,11.47625896,92334
"POINT (11.47625896 49.12480386)",158.0,DE,PVA,Kallmünz-Effenricht,10.0,2019.0,49.12480386,11.47625896,92334
"POINT (11.47625896 49.12480386)",158.0,DE,PVA,Kallmünz-Effenricht,10.0,2019.0,49.12480386,11.47625896,92334
"POINT (11.47625896 49.12480386)",158.0,DE,PVA,Kallmünz-Effenricht,10.0,2019.0,49.12480386,11.47625896,92334
"POINT (11.47625896 49.12480386)",158.0,DE,PVA,Kallmünz-Effenricht,10.0,2019.0,49.12480386,11.47625896,92334
"POINT (11.47625896 49.12480386)",158.0,DE,PVA,Kallmünz-Effenricht,10.0,2019.0,49.12480386,11.47625896,92334
"POINT (11.47625896 49.12480386)",158.0,DE,PVA,Kallmünz-Effenricht,10.0,2019.0,49.12480386,11.47625896,92334
"POINT (11.47625896 49.12480386)",158.0,DE,PVA,Kallmünz-Effenricht,10.0,2019.0,49.12480386,11.47625896,92334
"POINT (11.7309337 49.16324833)",159.0,DE,PVA,Kallmünz-Eichensee,306.0,2019.0,49.16324833,11.7309337,92331
"POINT (11.85755398 49.22377185)",160.0,DE,PVA,Kallmünz-Fichten,10.0,2019.0,49.22377185,11.85755398,92366
"POINT (11.85755398 49.22377185)",160.0,DE,PVA,Kallmünz-Fichten,10.0,2019.0,49.22377185,11.85755398,92366
"POINT (11.85755398 49.22377185)",160.0,DE,PVA,Kallmünz-Fichten,10.0,2019.0,49.22377185,11.85755398,92366
"POINT (11.85755398 49.22377185)",160.0,DE,PVA,Kallmünz-Fichten,10.0,2019.0,49.22377185,11.85755398,92366
"POINT (11.85755398 49.22377185)",160.0,DE,PVA,Kallmünz-Fichten,10.0,2019.0,49.22377185,11.85755398,92366
"POINT (11.85755398 49.22377185)",160.0,DE,PVA,Kallmünz-Fichten,10.0,2019.0,49.22377185,11.85755398,92366
"POINT (11.85755398 49.22377185)",160.0,DE,PVA,Kallmünz-Fichten,10.0,2019.0,49.22377185,11.85755398,92366
"POINT (11.85755398 49.22377185)",160.0,DE,PVA,Kallmünz-Fichten,10.0,2019.0,49.22377185,11.85755398,92366
"POINT (11.85755398 49.22377185)",160.0,DE,PVA,Kallmünz-Fichten,10.0,2019.0,49.22377185,11.85755398,92366
"POINT (11.73044563 49.16585142)",161.0,DE,PVA,Kallmünz-Hörmannsdorf,1401.0,2020.0,49.16585142,11.73044563,92331
"POINT (11.90904567 49.15740089)",162.0,DE,PVA,Kallmünz-Kallmünz,1198.0,2019.0,49.15740089,11.90904567,93183
"POINT (11.73646525 49.16357372)",163.0,DE,PVA,Kallmünz-Kühnhausen,1292.0,2019.0,49.16357372,11.73646525,92331
"POINT (14.09857255 51.2945174)",164.0,DE,PVA,Kamenz,381.0,2013.0,51.2945174,14.09857255,01917
"POINT (13.29747955 54.08171937)",165.0,DE,PVA,Kammin,751.0,2018.0,54.08171937,13.29747955,17498
"POINT (13.29747955 54.08171937)",165.0,DE,PVA,Kammin,751.0,2018.0,54.08171937,13.29747955,17498
"POINT (13.61725852 54.09532095)",166.0,DE,PVA,Kemnitz,1036.0,2023.0,54.09532095,13.61725852,17509
"POINT (13.61725852 54.09532095)",166.0,DE,PVA,Kemnitz,1036.0,2023.0,54.09532095,13.61725852,17509
"POINT (13.61725852 54.09532095)",166.0,DE,PVA,Kemnitz,1036.0,2023.0,54.09532095,13.61725852,17509
"POINT (13.61725852 54.09532095)",166.0,DE,PVA,Kemnitz,1036.0,2023.0,54.09532095,13.61725852,17509
"POINT (13.61725852 54.09532095)",166.0,DE,PVA,Kemnitz,1036.0,2023.0,54.09532095,13.61725852,17509
"POINT (13.61725852 54.09532095)",166.0,DE,PVA,Kemnitz,1036.0,2023.0,54.09532095,13.61725852,17509
"POINT (13.61725852 54.09532095)",166.0,DE,PVA,Kemnitz,1036.0,2023.0,54.09532095,13.61725852,17509
"POINT (13.61725852 54.09532095)",166.0,DE,PVA,Kemnitz,1036.0,2023.0,54.09532095,13.61725852,17509
"POINT (13.61725852 54.09532095)",166.0,DE,PVA,Kemnitz,1036.0,2023.0,54.09532095,13.61725852,17509
"POINT (11.69013588 52.62681827)",167.0,DE,PVA,Kläden,77.0,2016.0,52.62681827,11.69013588,39628
"POINT (11.69013588 52.62681827)",167.0,DE,PVA,Kläden,77.0,2016.0,52.62681827,11.69013588,39628
"POINT (11.58387797 53.39468266)",168.0,DE,PVA,Klein Laasch,14.0,2022.0,53.39468266,11.58387797,19306
"POINT (10.86118823 48.21330848)",169.0,DE,PVA,Kleinaitingen,487.0,2010.0,48.21330848,10.86118823,86507
"POINT (10.86118823 48.21330848)",169.0,DE,PVA,Kleinaitingen,487.0,2010.0,48.21330848,10.86118823,86507
"POINT (10.86118823 48.21330848)",169.0,DE,PVA,Kleinaitingen,487.0,2010.0,48.21330848,10.86118823,86507
"POINT (10.86118823 48.21330848)",169.0,DE,PVA,Kleinaitingen,487.0,2010.0,48.21330848,10.86118823,86507
"POINT (10.34329784 49.75499865)",170.0,DE,PVA,Kleinlangheim,433.0,2014.0,49.75499865,10.34329784,97355
"POINT (12.18491143 52.36107203)",171.0,DE,PVA,Kleinwusterwitz,699.0,2014.0,52.36107203,12.18491143,39307
"POINT (11.14357073 50.91138529)",172.0,DE,PVA,Klettbach,191.0,2010.0,50.91138529,11.14357073,99102
"POINT (14.91131501 51.30175433)",173.0,DE,PVA,Kodersdorf,381.0,2012.0,51.30175433,14.91131501,02923
"POINT (11.91253445 50.38169989)",174.0,DE,PVA,Köditz,993.0,2019.0,50.38169989,11.91253445,95183
"POINT (11.91253445 50.38169989)",174.0,DE,PVA,Köditz,993.0,2019.0,50.38169989,11.91253445,95183
"POINT (11.91253445 50.38169989)",174.0,DE,PVA,Köditz,993.0,2019.0,50.38169989,11.91253445,95183
"POINT (11.91253445 50.38169989)",174.0,DE,PVA,Köditz,993.0,2019.0,50.38169989,11.91253445,95183
"POINT (11.91253445 50.38169989)",174.0,DE,PVA,Köditz,993.0,2019.0,50.38169989,11.91253445,95183
"POINT (11.91253445 50.38169989)",174.0,DE,PVA,Köditz,993.0,2019.0,50.38169989,11.91253445,95183
"POINT (11.91253445 50.38169989)",174.0,DE,PVA,Köditz,993.0,2019.0,50.38169989,11.91253445,95183
"POINT (11.91253445 50.38169989)",174.0,DE,PVA,Köditz,993.0,2019.0,50.38169989,11.91253445,95183
"POINT (11.91253445 50.38169989)",174.0,DE,PVA,Köditz,993.0,2019.0,50.38169989,11.91253445,95183
"POINT (11.97569356 51.74890003)",175.0,DE,PVA,Köthen,486.0,2011.0,51.74890003,11.97569356,06366
"POINT (11.97569356 51.74890003)",175.0,DE,PVA,Köthen,486.0,2011.0,51.74890003,11.97569356,06366
"POINT (11.97569356 51.74890003)",175.0,DE,PVA,Köthen,486.0,2011.0,51.74890003,11.97569356,06366
"POINT (11.97569356 51.74890003)",175.0,DE,PVA,Köthen,486.0,2011.0,51.74890003,11.97569356,06366
"POINT (13.89003383 53.2710916)",176.0,DE,PVA,Kröchlendorff,1811.0,2016.0,53.2710916,13.89003383,17291
"POINT (9.910366752 54.13115587)",177.0,DE,PVA,Krogaspe,10.0,2020.0,54.13115587,9.910366752,24644
"POINT (9.910366752 54.13115587)",177.0,DE,PVA,Krogaspe,10.0,2020.0,54.13115587,9.910366752,24644
"POINT (9.910366752 54.13115587)",177.0,DE,PVA,Krogaspe,10.0,2020.0,54.13115587,9.910366752,24644
"POINT (9.910366752 54.13115587)",177.0,DE,PVA,Krogaspe,10.0,2020.0,54.13115587,9.910366752,24644
"POINT (9.910366752 54.13115587)",177.0,DE,PVA,Krogaspe,10.0,2020.0,54.13115587,9.910366752,24644
"POINT (9.910366752 54.13115587)",177.0,DE,PVA,Krogaspe,10.0,2020.0,54.13115587,9.910366752,24644
"POINT (9.910366752 54.13115587)",177.0,DE,PVA,Krogaspe,10.0,2020.0,54.13115587,9.910366752,24644
"POINT (9.910366752 54.13115587)",177.0,DE,PVA,Krogaspe,10.0,2020.0,54.13115587,9.910366752,24644
"POINT (9.910366752 54.13115587)",177.0,DE,PVA,Krogaspe,10.0,2020.0,54.13115587,9.910366752,24644
"POINT (11.58019692 50.14414241)",178.0,DE,PVA,Kupferberg,981.0,2020.0,50.14414241,11.58019692,95362
"POINT (11.58019692 50.14414241)",178.0,DE,PVA,Kupferberg,981.0,2020.0,50.14414241,11.58019692,95362
"POINT (11.58019692 50.14414241)",178.0,DE,PVA,Kupferberg,981.0,2020.0,50.14414241,11.58019692,95362
"POINT (11.58019692 50.14414241)",178.0,DE,PVA,Kupferberg,981.0,2020.0,50.14414241,11.58019692,95362
"POINT (11.58019692 50.14414241)",178.0,DE,PVA,Kupferberg,981.0,2020.0,50.14414241,11.58019692,95362
"POINT (11.58019692 50.14414241)",178.0,DE,PVA,Kupferberg,981.0,2020.0,50.14414241,11.58019692,95362
"POINT (11.58019692 50.14414241)",178.0,DE,PVA,Kupferberg,981.0,2020.0,50.14414241,11.58019692,95362
"POINT (11.58019692 50.14414241)",178.0,DE,PVA,Kupferberg,981.0,2020.0,50.14414241,11.58019692,95362
"POINT (11.58019692 50.14414241)",178.0,DE,PVA,Kupferberg,981.0,2020.0,50.14414241,11.58019692,95362
"POINT (12.10450904 51.51292926)",179.0,DE,PVA,Landsberg,99.0,2017.0,51.51292926,12.10450904,06188
"POINT (12.10450904 51.51292926)",179.0,DE,PVA,Landsberg,99.0,2017.0,51.51292926,12.10450904,06188
"POINT (12.10450904 51.51292926)",179.0,DE,PVA,Landsberg,99.0,2017.0,51.51292926,12.10450904,06188
"POINT (12.10450904 51.51292926)",179.0,DE,PVA,Landsberg,99.0,2017.0,51.51292926,12.10450904,06188
"POINT (12.10450904 51.51292926)",179.0,DE,PVA,Landsberg,99.0,2017.0,51.51292926,12.10450904,06188
"POINT (12.10450904 51.51292926)",179.0,DE,PVA,Landsberg,99.0,2017.0,51.51292926,12.10450904,06188
"POINT (12.10450904 51.51292926)",179.0,DE,PVA,Landsberg,99.0,2017.0,51.51292926,12.10450904,06188
"POINT (12.10450904 51.51292926)",179.0,DE,PVA,Landsberg,99.0,2017.0,51.51292926,12.10450904,06188
"POINT (12.10450904 51.51292926)",179.0,DE,PVA,Landsberg,99.0,2017.0,51.51292926,12.10450904,06188
"POINT (12.10472596 51.52290775)",180.0,DE,PVA,Landsberg 3,53.0,2020.0,51.52290775,12.10472596,06188
"POINT (12.10472596 51.52290775)",180.0,DE,PVA,Landsberg 3,53.0,2020.0,51.52290775,12.10472596,06188
"POINT (12.10472596 51.52290775)",180.0,DE,PVA,Landsberg 3,53.0,2020.0,51.52290775,12.10472596,06188
"POINT (12.10472596 51.52290775)",180.0,DE,PVA,Landsberg 3,53.0,2020.0,51.52290775,12.10472596,06188
"POINT (11.84960408 51.43838671)",181.0,DE,PVA,Langenbogen,298.0,2015.0,51.43838671,11.84960408,06179
"POINT (9.356666288 50.64104234)",182.0,DE,PVA,Lauterbach,5464.0,2022.0,50.64104234,9.356666288,36341
"POINT (8.591613419 53.13708607)",183.0,DE,PVA,Lemwerder,1356.0,2023.0,53.13708607,8.591613419,27809
"POINT (14.37808554 52.67435639)",184.0,DE,PVA,Letschin,1534.0,2018.0,52.67435639,14.37808554,15324
"POINT (14.37808554 52.67435639)",184.0,DE,PVA,Letschin,1534.0,2018.0,52.67435639,14.37808554,15324
"POINT (14.37808554 52.67435639)",184.0,DE,PVA,Letschin,1534.0,2018.0,52.67435639,14.37808554,15324
"POINT (13.12372671 51.4651716)",185.0,DE,PVA,Liebersee,323.0,2015.0,51.4651716,13.12372671,04874
"POINT (7.289404403 50.00151165)",186.0,DE,PVA,Liesenich,1007.0,2024.0,50.00151165,7.289404403,56858
"POINT (7.289404403 50.00151165)",186.0,DE,PVA,Liesenich,1007.0,2024.0,50.00151165,7.289404403,56858
"POINT (7.289404403 50.00151165)",186.0,DE,PVA,Liesenich,1007.0,2024.0,50.00151165,7.289404403,56858
"POINT (7.289404403 50.00151165)",186.0,DE,PVA,Liesenich,1007.0,2024.0,50.00151165,7.289404403,56858
"POINT (7.289404403 50.00151165)",186.0,DE,PVA,Liesenich,1007.0,2024.0,50.00151165,7.289404403,56858
"POINT (7.289404403 50.00151165)",186.0,DE,PVA,Liesenich,1007.0,2024.0,50.00151165,7.289404403,56858
"POINT (7.289404403 50.00151165)",186.0,DE,PVA,Liesenich,1007.0,2024.0,50.00151165,7.289404403,56858
"POINT (7.289404403 50.00151165)",186.0,DE,PVA,Liesenich,1007.0,2024.0,50.00151165,7.289404403,56858
"POINT (7.289404403 50.00151165)",186.0,DE,PVA,Liesenich,1007.0,2024.0,50.00151165,7.289404403,56858
"POINT (12.78125793 52.19746626)",187.0,DE,PVA,Linthe,254.0,2014.0,52.19746626,12.78125793,14822
"POINT (14.58317964 51.17355456)",188.0,DE,PVA,Litten,3831.0,2013.0,51.17355456,14.58317964,02627
"POINT (12.69693757 54.32736779)",189.0,DE,PVA,Löbnitz,983.0,2014.0,54.32736779,12.69693757,18314
"POINT (12.69693757 54.32736779)",189.0,DE,PVA,Löbnitz,983.0,2014.0,54.32736779,12.69693757,18314
"POINT (12.69693757 54.32736779)",189.0,DE,PVA,Löbnitz,983.0,2014.0,54.32736779,12.69693757,18314
"POINT (12.69693757 54.32736779)",189.0,DE,PVA,Löbnitz,983.0,2014.0,54.32736779,12.69693757,18314
"POINT (12.69693757 54.32736779)",189.0,DE,PVA,Löbnitz,983.0,2014.0,54.32736779,12.69693757,18314
"POINT (12.69693757 54.32736779)",189.0,DE,PVA,Löbnitz,983.0,2014.0,54.32736779,12.69693757,18314
"POINT (12.69693757 54.32736779)",189.0,DE,PVA,Löbnitz,983.0,2014.0,54.32736779,12.69693757,18314
"POINT (12.69693757 54.32736779)",189.0,DE,PVA,Löbnitz,983.0,2014.0,54.32736779,12.69693757,18314
"POINT (12.69693757 54.32736779)",189.0,DE,PVA,Löbnitz,983.0,2014.0,54.32736779,12.69693757,18314
"POINT (14.1963031 53.49794338)",190.0,DE,PVA,Löcknitz,991.0,2014.0,53.49794338,14.1963031,17321
"POINT (14.1963031 53.49794338)",190.0,DE,PVA,Löcknitz,991.0,2014.0,53.49794338,14.1963031,17321
"POINT (14.1963031 53.49794338)",190.0,DE,PVA,Löcknitz,991.0,2014.0,53.49794338,14.1963031,17321
"POINT (14.1963031 53.49794338)",190.0,DE,PVA,Löcknitz,991.0,2014.0,53.49794338,14.1963031,17321
"POINT (14.1963031 53.49794338)",190.0,DE,PVA,Löcknitz,991.0,2014.0,53.49794338,14.1963031,17321
"POINT (14.1963031 53.49794338)",190.0,DE,PVA,Löcknitz,991.0,2014.0,53.49794338,14.1963031,17321
"POINT (14.1963031 53.49794338)",190.0,DE,PVA,Löcknitz,991.0,2014.0,53.49794338,14.1963031,17321
"POINT (14.1963031 53.49794338)",190.0,DE,PVA,Löcknitz,991.0,2014.0,53.49794338,14.1963031,17321
"POINT (14.1963031 53.49794338)",190.0,DE,PVA,Löcknitz,991.0,2014.0,53.49794338,14.1963031,17321
"POINT (11.48757591 53.34502595)",191.0,DE,PVA,Ludwigslust,711.0,2021.0,53.34502595,11.48757591,19288
"POINT (11.72686639 49.15869294)",192.0,DE,PVA,Lupburg-Dettenhofen,996.0,2016.0,49.15869294,11.72686639,92331
"POINT (11.72686639 49.15869294)",192.0,DE,PVA,Lupburg-Dettenhofen,996.0,2016.0,49.15869294,11.72686639,92331
"POINT (11.72686639 49.15869294)",192.0,DE,PVA,Lupburg-Dettenhofen,996.0,2016.0,49.15869294,11.72686639,92331
"POINT (11.72686639 49.15869294)",192.0,DE,PVA,Lupburg-Dettenhofen,996.0,2016.0,49.15869294,11.72686639,92331
"POINT (11.72686639 49.15869294)",192.0,DE,PVA,Lupburg-Dettenhofen,996.0,2016.0,49.15869294,11.72686639,92331
"POINT (11.72686639 49.15869294)",192.0,DE,PVA,Lupburg-Dettenhofen,996.0,2016.0,49.15869294,11.72686639,92331
"POINT (11.72686639 49.15869294)",192.0,DE,PVA,Lupburg-Dettenhofen,996.0,2016.0,49.15869294,11.72686639,92331
"POINT (11.72686639 49.15869294)",192.0,DE,PVA,Lupburg-Dettenhofen,996.0,2016.0,49.15869294,11.72686639,92331
"POINT (11.72686639 49.15869294)",192.0,DE,PVA,Lupburg-Dettenhofen,996.0,2016.0,49.15869294,11.72686639,92331
"POINT (11.85283589 49.22068069)",193.0,DE,PVA,Lupburg-Granswang,143.0,2019.0,49.22068069,11.85283589,92366
"POINT (11.8593436 49.22100607)",194.0,DE,PVA,Lupburg-Hohenfels,791.0,2016.0,49.22100607,11.8593436,92366
"POINT (11.8593436 49.22100607)",194.0,DE,PVA,Lupburg-Hohenfels,791.0,2016.0,49.22100607,11.8593436,92366
"POINT (11.72556485 49.16666488)",195.0,DE,PVA,Lupburg-Hüttberg,925.0,2016.0,49.16666488,11.72556485,92331
"POINT (11.72556485 49.16666488)",195.0,DE,PVA,Lupburg-Hüttberg,925.0,2016.0,49.16666488,11.72556485,92331
"POINT (9.462919732 54.52123371)",196.0,DE,PVA,Lürschau,872.0,2019.0,54.52123371,9.462919732,24850
"POINT (9.462919732 54.52123371)",196.0,DE,PVA,Lürschau,872.0,2019.0,54.52123371,9.462919732,24850
"POINT (11.39653305 53.21849658)",197.0,DE,PVA,Malliß,498.0,2016.0,53.21849658,11.39653305,19294
"POINT (11.39653305 53.21849658)",197.0,DE,PVA,Malliß,498.0,2016.0,53.21849658,11.39653305,19294
"POINT (11.39653305 53.21849658)",197.0,DE,PVA,Malliß,498.0,2016.0,53.21849658,11.39653305,19294
"POINT (11.39653305 53.21849658)",197.0,DE,PVA,Malliß,498.0,2016.0,53.21849658,11.39653305,19294
"POINT (11.36764853 51.60301763)",198.0,DE,PVA,Mansfeld-Siebigeröder Str.,186.0,2019.0,51.60301763,11.36764853,06343
"POINT (11.36667238 51.59130376)",199.0,DE,PVA,Mansfeld-Vatteröder Str.,267.0,2020.0,51.59130376,11.36667238,06343
"POINT (10.67598383 50.18755641)",200.0,DE,PVA,Marbach,1376.0,2023.0,50.18755641,10.67598383,96126
"POINT (12.48002897 54.1705835)",201.0,DE,PVA,Marlow,72.0,2019.0,54.1705835,12.48002897,18337
"POINT (10.27161251 50.19088673)",202.0,DE,PVA,Maßbach,1966.0,2016.0,50.19088673,10.27161251,97711
"POINT (10.28430254 50.19283904)",203.0,DE,PVA,Maßbach Poppenlauer,10.0,2021.0,50.19283904,10.28430254,97711
"POINT (10.28430254 50.19283904)",203.0,DE,PVA,Maßbach Poppenlauer,10.0,2021.0,50.19283904,10.28430254,97711
"POINT (10.28430254 50.19283904)",203.0,DE,PVA,Maßbach Poppenlauer,10.0,2021.0,50.19283904,10.28430254,97711
"POINT (10.28430254 50.19283904)",203.0,DE,PVA,Maßbach Poppenlauer,10.0,2021.0,50.19283904,10.28430254,97711
"POINT (10.28430254 50.19283904)",203.0,DE,PVA,Maßbach Poppenlauer,10.0,2021.0,50.19283904,10.28430254,97711
"POINT (10.28430254 50.19283904)",203.0,DE,PVA,Maßbach Poppenlauer,10.0,2021.0,50.19283904,10.28430254,97711
"POINT (10.28430254 50.19283904)",203.0,DE,PVA,Maßbach Poppenlauer,10.0,2021.0,50.19283904,10.28430254,97711
"POINT (10.28430254 50.19283904)",203.0,DE,PVA,Maßbach Poppenlauer,10.0,2021.0,50.19283904,10.28430254,97711
"POINT (10.28430254 50.19283904)",203.0,DE,PVA,Maßbach Poppenlauer,10.0,2021.0,50.19283904,10.28430254,97711
"POINT (10.26445403 50.18633133)",204.0,DE,PVA,Maßbach Poppenlauer 2,335.0,2021.0,50.18633133,10.26445403,97711
"POINT (12.34657536 51.04962611)",205.0,DE,PVA,Meuselwitz,167.0,2014.0,51.04962611,12.34657536,04610
"POINT (11.234199 49.17206956)",206.0,DE,PVA,Mindorf,834.0,2019.0,49.17206956,11.234199,91161
"POINT (11.234199 49.17206956)",206.0,DE,PVA,Mindorf,834.0,2019.0,49.17206956,11.234199,91161
"POINT (7.301118275 50.00281319)",207.0,DE,PVA,Mittelstrimmig,1903.0,2024.0,50.00281319,7.301118275,56858
"POINT (12.36145381 50.97295055)",208.0,DE,PVA,Mockern,149.0,2013.0,50.97295055,12.36145381,04603
"POINT (13.12885085 51.14134902)",209.0,DE,PVA,Mockritz,1079.0,2012.0,51.14134902,13.12885085,04720
"POINT (13.12885085 51.14134902)",209.0,DE,PVA,Mockritz,1079.0,2012.0,51.14134902,13.12885085,04720
"POINT (13.12885085 51.14134902)",209.0,DE,PVA,Mockritz,1079.0,2012.0,51.14134902,13.12885085,04720
"POINT (9.710702264 54.67808403)",210.0,DE,PVA,Mohrkirch,932.0,2018.0,54.67808403,9.710702264,24405
"POINT (9.710702264 54.67808403)",210.0,DE,PVA,Mohrkirch,932.0,2018.0,54.67808403,9.710702264,24405
"POINT (12.53224654 53.5931739)",211.0,DE,PVA,Moltzow,45.0,2014.0,53.5931739,12.53224654,17194
"POINT (11.90297913 51.59931095)",212.0,DE,PVA,Mösthinsdorf,513.0,2014.0,51.59931095,11.90297913,06193
"POINT (11.90297913 51.59931095)",212.0,DE,PVA,Mösthinsdorf,513.0,2014.0,51.59931095,11.90297913,06193
"POINT (11.90297913 51.59931095)",212.0,DE,PVA,Mösthinsdorf,513.0,2014.0,51.59931095,11.90297913,06193
"POINT (11.90297913 51.59931095)",212.0,DE,PVA,Mösthinsdorf,513.0,2014.0,51.59931095,11.90297913,06193
"POINT (10.04174218 54.17442629)",213.0,DE,PVA,Mühbrook,927.0,2019.0,54.17442629,10.04174218,24582
"POINT (10.04174218 54.17442629)",213.0,DE,PVA,Mühbrook,927.0,2019.0,54.17442629,10.04174218,24582
"POINT (10.04174218 54.17442629)",214.0,DE,PVA,Mühbrook 2,66.0,,54.17442629,10.04174218,24582
"POINT (10.04174218 54.17442629)",214.0,DE,PVA,Mühbrook 2,66.0,,54.17442629,10.04174218,24582
"POINT (10.04174218 54.17442629)",215.0,DE,PVA,Mühbrook 2.1,66.0,2025.0,54.17442629,10.04174218,24582
"POINT (10.04174218 54.17442629)",215.0,DE,PVA,Mühbrook 2.1,66.0,2025.0,54.17442629,10.04174218,24582
"POINT (12.78851188 52.615014)",216.0,DE,PVA,Nauen,509.0,2016.0,52.615014,12.78851188,14641
"POINT (12.78851188 52.615014)",216.0,DE,PVA,Nauen,509.0,2016.0,52.615014,12.78851188,14641
"POINT (12.78851188 52.615014)",216.0,DE,PVA,Nauen,509.0,2016.0,52.615014,12.78851188,14641
"POINT (12.78851188 52.615014)",216.0,DE,PVA,Nauen,509.0,2016.0,52.615014,12.78851188,14641
"POINT (11.82691455 51.12149893)",217.0,DE,PVA,Naumburg,224.0,2016.0,51.12149893,11.82691455,06618
"POINT (7.28615055 50.00606704)",218.0,DE,PVA,Neef,2893.0,2024.0,50.00606704,7.28615055,56858
"POINT (11.59506187 51.35164754)",219.0,DE,PVA,Nemsdorf,1375.0,2014.0,51.35164754,11.59506187,06268
"POINT (9.7216474 54.36003045)",220.0,DE,PVA,Neu Duvenstedt EEG,3278.0,2024.0,54.36003045,9.7216474,24794
"POINT (9.721403361 54.35173312)",221.0,DE,PVA,Neu Duvenstedt PPA,1281.0,2024.0,54.35173312,9.721403361,24794
"POINT (12.42561694 53.33600811)",222.0,DE,PVA,Neu Stuer,352.0,2022.0,53.33600811,12.42561694,17209
"POINT (13.31487979 53.54158775)",223.0,DE,PVA,Neubrandenburg,294.0,2013.0,53.54158775,13.31487979,17036
"POINT (11.57070878 53.96399825)",224.0,DE,PVA,Neuburg,244.0,2022.0,53.96399825,11.57070878,23974
"POINT (14.22634328 52.62986258)",225.0,DE,PVA,Neuhardenberg-Dächer 1,5.0,2014.0,52.62986258,14.22634328,15320
"POINT (14.19640783 52.63376721)",226.0,DE,PVA,Neuhardenberg-Dächer 3,45.0,2014.0,52.63376721,14.19640783,15320
"POINT (14.2348033 52.62823565)",227.0,DE,PVA,Neuhardenberg-Dächer 4,8.0,2014.0,52.62823565,14.2348033,15320
"POINT (14.21951019 52.62660873)",228.0,DE,PVA,Neuhardenberg-Dächer 7,96.0,2014.0,52.62660873,14.21951019,15320
"POINT (14.23350176 52.6360449)",229.0,DE,PVA,Neuhardenberg-Flugplatz,7234.0,2013.0,52.6360449,14.23350176,15320
"POINT (14.21918481 52.64320338)",230.0,DE,PVA,Neuhardenberg-Kaserne,131.0,2015.0,52.64320338,14.21918481,15320
"POINT (12.77692403 52.91811394)",231.0,DE,PVA,Neuruppin,792.0,2012.0,52.91811394,12.77692403,16816
"POINT (12.77692403 52.91811394)",231.0,DE,PVA,Neuruppin,792.0,2012.0,52.91811394,12.77692403,16816
"POINT (12.77692403 52.92445896)",232.0,DE,PVA,Neuruppin 750,75.0,2021.0,52.92445896,12.77692403,16816
"POINT (9.084849353 50.86881899)",233.0,DE,PVA,Neustadt Nord,616.0,2024.0,50.86881899,9.084849353,35279
"POINT (9.078016261 50.86458898)",234.0,DE,PVA,Neustadt Süd,1323.0,2022.0,50.86458898,9.078016261,35279
"POINT (9.090706289 50.87044592)",235.0,DE,PVA,Neustadt-Hinter der Struth,11.0,2022.0,50.87044592,9.090706289,35279
"POINT (13.0884108 53.336652)",236.0,DE,PVA,Neustrelitz,579.0,2020.0,53.336652,13.0884108,17235
"POINT (11.25139754 51.94706193)",237.0,DE,PVA,Nienhagen,126.0,2023.0,51.94706193,11.25139754,39397
"POINT (11.20551831 50.97285911)",238.0,DE,PVA,Nohra,701.0,2019.0,50.97285911,11.20551831,99428
"POINT (11.203566 50.96749025)",239.0,DE,PVA,Nohra 5,54.0,2021.0,50.96749025,11.203566,99428
"POINT (7.160342456 53.58284819)",240.0,DE,PVA,Norden,232.0,2015.0,53.58284819,7.160342456,26506
"POINT (8.591767486 53.7196715)",241.0,DE,PVA,Nordholz,982.0,2014.0,53.7196715,8.591767486,27639
"POINT (8.591767486 53.7196715)",241.0,DE,PVA,Nordholz,982.0,2014.0,53.7196715,8.591767486,27639
"POINT (8.591767486 53.7196715)",241.0,DE,PVA,Nordholz,982.0,2014.0,53.7196715,8.591767486,27639
"POINT (8.591767486 53.7196715)",241.0,DE,PVA,Nordholz,982.0,2014.0,53.7196715,8.591767486,27639
"POINT (8.591767486 53.7196715)",241.0,DE,PVA,Nordholz,982.0,2014.0,53.7196715,8.591767486,27639
"POINT (8.591767486 53.7196715)",241.0,DE,PVA,Nordholz,982.0,2014.0,53.7196715,8.591767486,27639
"POINT (8.591767486 53.7196715)",241.0,DE,PVA,Nordholz,982.0,2014.0,53.7196715,8.591767486,27639
"POINT (8.591767486 53.7196715)",241.0,DE,PVA,Nordholz,982.0,2014.0,53.7196715,8.591767486,27639
"POINT (8.591767486 53.7196715)",241.0,DE,PVA,Nordholz,982.0,2014.0,53.7196715,8.591767486,27639
"POINT (11.27985624 51.506824)",242.0,DE,PVA,Oberröblingen,89.0,2016.0,51.506824,11.27985624,06526
"POINT (11.27985624 51.506824)",242.0,DE,PVA,Oberröblingen,89.0,2016.0,51.506824,11.27985624,06526
"POINT (13.1160556 50.99183764)",243.0,DE,PVA,Oberrossau,699.0,2013.0,50.99183764,13.1160556,09661
"POINT (14.79965287 50.8952659)",244.0,DE,PVA,Oberseifersdorf,1437.0,2013.0,50.8952659,14.79965287,02763
"POINT (14.80367951 50.89819437)",245.0,DE,PVA,Oberseifersdorf 3,2.0,2018.0,50.89819437,14.80367951,02763
"POINT (11.97268921 53.88720729)",246.0,DE,PVA,Oettelin,11.0,2022.0,53.88720729,11.97268921,18246
"POINT (11.97268921 53.88720729)",246.0,DE,PVA,Oettelin,11.0,2022.0,53.88720729,11.97268921,18246
"POINT (11.97268921 53.88720729)",246.0,DE,PVA,Oettelin,11.0,2022.0,53.88720729,11.97268921,18246
"POINT (12.11578906 51.52355852)",247.0,DE,PVA,Oppin,692.0,2012.0,51.52355852,12.11578906,06188
"POINT (13.29698102 52.77349627)",248.0,DE,PVA,Oranienburg,377.0,2012.0,52.77349627,13.29698102,16515
"POINT (13.1406866 51.34277142)",249.0,DE,PVA,Oschatz,381.0,2013.0,51.34277142,13.1406866,04758
"POINT (13.13238927 51.33740256)",250.0,DE,PVA,Oschatz 2,458.0,2018.0,51.33740256,13.13238927,04758
"POINT (13.13238927 51.33740256)",250.0,DE,PVA,Oschatz 2,458.0,2018.0,51.33740256,13.13238927,04758
"POINT (13.13238927 51.33740256)",250.0,DE,PVA,Oschatz 2,458.0,2018.0,51.33740256,13.13238927,04758
"POINT (13.13238927 51.33740256)",250.0,DE,PVA,Oschatz 2,458.0,2018.0,51.33740256,13.13238927,04758
"POINT (9.004123618 54.76013819)",251.0,DE,PVA,Oster-Schnatebüll,511.0,2025.0,54.76013819,9.004123618,25917
"POINT (9.59898121 52.05459787)",252.0,DE,PVA,Osterwald,34.0,2022.0,52.05459787,9.59898121,31020
"POINT (12.53601478 51.35006142)",253.0,DE,PVA,Panitzsch,746.0,2012.0,51.35006142,12.53601478,04451
"POINT (13.9853259 53.50161524)",254.0,DE,PVA,Pasewalk,487.0,2014.0,53.50161524,13.9853259,17309
"POINT (13.9853259 53.50161524)",254.0,DE,PVA,Pasewalk,487.0,2014.0,53.50161524,13.9853259,17309
"POINT (13.9853259 53.50161524)",254.0,DE,PVA,Pasewalk,487.0,2014.0,53.50161524,13.9853259,17309
"POINT (13.9853259 53.50161524)",254.0,DE,PVA,Pasewalk,487.0,2014.0,53.50161524,13.9853259,17309
"POINT (12.52655409 48.5203816)",255.0,DE,PVA,Pentling,315.0,2021.0,48.5203816,12.52655409,84160
"POINT (12.06761558 48.96226554)",256.0,DE,PVA,Pentling 2,317.0,2024.0,48.96226554,12.06761558,93080
"POINT (11.75176137 51.77323343)",257.0,DE,PVA,Poley,56.0,2019.0,51.77323343,11.75176137,06406
"POINT (12.14554201 50.89781963)",258.0,DE,PVA,Pölzig,625.0,2015.0,50.89781963,12.14554201,07554
"POINT (14.59025677 51.17428668)",259.0,DE,PVA,Pommritz,94.0,2022.0,51.17428668,14.59025677,02627
"POINT (13.85586836 53.28378163)",260.0,DE,PVA,Prenzlau,10.0,2018.0,53.28378163,13.85586836,17291
"POINT (13.85586836 53.28378163)",260.0,DE,PVA,Prenzlau,10.0,2018.0,53.28378163,13.85586836,17291
"POINT (13.85586836 53.28378163)",260.0,DE,PVA,Prenzlau,10.0,2018.0,53.28378163,13.85586836,17291
"POINT (13.85586836 53.28378163)",260.0,DE,PVA,Prenzlau,10.0,2018.0,53.28378163,13.85586836,17291
"POINT (13.85586836 53.28378163)",260.0,DE,PVA,Prenzlau,10.0,2018.0,53.28378163,13.85586836,17291
"POINT (13.85586836 53.28378163)",260.0,DE,PVA,Prenzlau,10.0,2018.0,53.28378163,13.85586836,17291
"POINT (13.85586836 53.28378163)",260.0,DE,PVA,Prenzlau,10.0,2018.0,53.28378163,13.85586836,17291
"POINT (13.85586836 53.28378163)",260.0,DE,PVA,Prenzlau,10.0,2018.0,53.28378163,13.85586836,17291
"POINT (13.85586836 53.28378163)",260.0,DE,PVA,Prenzlau,10.0,2018.0,53.28378163,13.85586836,17291
"POINT (12.28919946 54.17769687)",261.0,DE,PVA,Purkshof,999.0,2021.0,54.17769687,12.28919946,18182
"POINT (12.28919946 54.17769687)",261.0,DE,PVA,Purkshof,999.0,2021.0,54.17769687,12.28919946,18182
"POINT (12.28919946 54.17769687)",261.0,DE,PVA,Purkshof,999.0,2021.0,54.17769687,12.28919946,18182
"POINT (12.28919946 54.17769687)",261.0,DE,PVA,Purkshof,999.0,2021.0,54.17769687,12.28919946,18182
"POINT (12.28919946 54.17769687)",261.0,DE,PVA,Purkshof,999.0,2021.0,54.17769687,12.28919946,18182
"POINT (12.28919946 54.17769687)",261.0,DE,PVA,Purkshof,999.0,2021.0,54.17769687,12.28919946,18182
"POINT (12.28919946 54.17769687)",261.0,DE,PVA,Purkshof,999.0,2021.0,54.17769687,12.28919946,18182
"POINT (12.28919946 54.17769687)",261.0,DE,PVA,Purkshof,999.0,2021.0,54.17769687,12.28919946,18182
"POINT (12.28919946 54.17769687)",261.0,DE,PVA,Purkshof,999.0,2021.0,54.17769687,12.28919946,18182
"POINT (9.768118319 53.93249492)",262.0,DE,PVA,Quarnstedt,1323.0,2022.0,53.93249492,9.768118319,25563
"POINT (12.37040102 51.4534391)",263.0,DE,PVA,Rackwitz,421.0,2012.0,51.4534391,12.37040102,04519
"POINT (12.04928208 51.70283279)",264.0,DE,PVA,Radegast,94.0,2022.0,51.70283279,12.04928208,06369
"POINT (13.53422504 53.64537521)",265.0,DE,PVA,Ramelow,1175.0,2017.0,53.64537521,13.53422504,17098
"POINT (12.38869232 51.10131835)",266.0,DE,PVA,Regis-Breitingen,15.0,2017.0,51.10131835,12.38869232,04565
"POINT (12.34169766 50.62078685)",267.0,DE,PVA,Reichenbach,133.0,2015.0,50.62078685,12.34169766,08468
"POINT (7.288730842 50.04226545)",268.0,DE,PVA,Reidenhausen,1713.0,2024.0,50.04226545,7.288730842,56865
"POINT (12.27455747 51.57970936)",269.0,DE,PVA,Roitzsch,978.0,2015.0,51.57970936,12.27455747,06809
"POINT (12.27455747 51.57970936)",269.0,DE,PVA,Roitzsch,978.0,2015.0,51.57970936,12.27455747,06809
"POINT (12.27455747 51.57970936)",269.0,DE,PVA,Roitzsch,978.0,2015.0,51.57970936,12.27455747,06809
"POINT (12.27455747 51.57970936)",269.0,DE,PVA,Roitzsch,978.0,2015.0,51.57970936,12.27455747,06809
"POINT (12.27455747 51.57970936)",269.0,DE,PVA,Roitzsch,978.0,2015.0,51.57970936,12.27455747,06809
"POINT (12.27455747 51.57970936)",269.0,DE,PVA,Roitzsch,978.0,2015.0,51.57970936,12.27455747,06809
"POINT (12.27455747 51.57970936)",269.0,DE,PVA,Roitzsch,978.0,2015.0,51.57970936,12.27455747,06809
"POINT (12.27455747 51.57970936)",269.0,DE,PVA,Roitzsch,978.0,2015.0,51.57970936,12.27455747,06809
"POINT (12.27455747 51.57970936)",269.0,DE,PVA,Roitzsch,978.0,2015.0,51.57970936,12.27455747,06809
"POINT (12.20412967 50.84466127)",270.0,DE,PVA,Ronneburg,1182.0,2013.0,50.84466127,12.20412967,07580
"POINT (13.19135411 51.07932544)",271.0,DE,PVA,Roßwein 1+2,531.0,2014.0,51.07932544,13.19135411,04741
"POINT (13.19135411 51.07932544)",271.0,DE,PVA,Roßwein 1+2,531.0,2014.0,51.07932544,13.19135411,04741
"POINT (13.19135411 51.07932544)",271.0,DE,PVA,Roßwein 1+2,531.0,2014.0,51.07932544,13.19135411,04741
"POINT (13.19135411 51.07932544)",271.0,DE,PVA,Roßwein 1+2,531.0,2014.0,51.07932544,13.19135411,04741
"POINT (11.12341248 52.83872667)",272.0,DE,PVA,Salzwedel-Chüden,497.0,2016.0,52.83872667,11.12341248,29410
"POINT (11.12341248 52.83872667)",272.0,DE,PVA,Salzwedel-Chüden,497.0,2016.0,52.83872667,11.12341248,29410
"POINT (11.12341248 52.83872667)",272.0,DE,PVA,Salzwedel-Chüden,497.0,2016.0,52.83872667,11.12341248,29410
"POINT (11.12341248 52.83872667)",272.0,DE,PVA,Salzwedel-Chüden,497.0,2016.0,52.83872667,11.12341248,29410
"POINT (11.14293561 52.83286973)",273.0,DE,PVA,Salzwedel-Fuchsberg,1613.0,2016.0,52.83286973,11.14293561,29410
"POINT (12.06890235 52.63918524)",274.0,DE,PVA,Sandau,24.0,2014.0,52.63918524,12.06890235,39524
"POINT (7.298515193 50.01127321)",275.0,DE,PVA,Sankt Aldegund,1846.0,2023.0,50.01127321,7.298515193,56858
"POINT (11.86006681 50.8700145)",276.0,DE,PVA,Sankt Gangloff,219.0,2014.0,50.8700145,11.86006681,07629
"POINT (9.778981399 54.63322608)",277.0,DE,PVA,Saustrup,778.0,2023.0,54.63322608,9.778981399,24392
"POINT (9.778981399 54.63322608)",277.0,DE,PVA,Saustrup,778.0,2023.0,54.63322608,9.778981399,24392
"POINT (13.88692382 51.50819455)",278.0,DE,PVA,Schipkau,219.0,2013.0,51.50819455,13.88692382,01993
"POINT (11.8076086 51.01355733)",279.0,DE,PVA,Schkölen,3745.0,2022.0,51.01355733,11.8076086,07619
"POINT (10.74637822 50.54396244)",280.0,DE,PVA,Schleusingen,52.0,2017.0,50.54396244,10.74637822,98553
"POINT (10.05345605 54.17003358)",281.0,DE,PVA,Schönbek,92.0,2018.0,54.17003358,10.05345605,24582
"POINT (10.05345605 54.17003358)",281.0,DE,PVA,Schönbek,92.0,2018.0,54.17003358,10.05345605,24582
"POINT (10.03393293 54.16954551)",282.0,DE,PVA,Schönbek 2,923.0,2021.0,54.16954551,10.03393293,24582
"POINT (10.03393293 54.16954551)",282.0,DE,PVA,Schönbek 2,923.0,2021.0,54.16954551,10.03393293,24582
"POINT (10.82924695 48.16933108)",283.0,DE,PVA,Schwabstadl,998.0,2014.0,48.16933108,10.82924695,86836
"POINT (10.82924695 48.16933108)",283.0,DE,PVA,Schwabstadl,998.0,2014.0,48.16933108,10.82924695,86836
"POINT (10.82924695 48.16933108)",283.0,DE,PVA,Schwabstadl,998.0,2014.0,48.16933108,10.82924695,86836
"POINT (10.82924695 48.16933108)",283.0,DE,PVA,Schwabstadl,998.0,2014.0,48.16933108,10.82924695,86836
"POINT (10.82924695 48.16933108)",283.0,DE,PVA,Schwabstadl,998.0,2014.0,48.16933108,10.82924695,86836
"POINT (10.82924695 48.16933108)",283.0,DE,PVA,Schwabstadl,998.0,2014.0,48.16933108,10.82924695,86836
"POINT (10.82924695 48.16933108)",283.0,DE,PVA,Schwabstadl,998.0,2014.0,48.16933108,10.82924695,86836
"POINT (10.82924695 48.16933108)",283.0,DE,PVA,Schwabstadl,998.0,2014.0,48.16933108,10.82924695,86836
"POINT (10.82924695 48.16933108)",283.0,DE,PVA,Schwabstadl,998.0,2014.0,48.16933108,10.82924695,86836
"POINT (10.83430363 48.16849589)",284.0,DE,PVA,Schwabstadl 3,336.0,2017.0,48.16849589,10.83430363,86836
"POINT (11.23230826 51.93751729)",285.0,DE,PVA,Schwanebeck,185.0,2022.0,51.93751729,11.23230826,39397
"POINT (14.37873079 52.50770184)",286.0,DE,PVA,Seelow,236.0,2014.0,52.50770184,14.37873079,15306
"POINT (12.10209394 50.16977019)",287.0,DE,PVA,Selb,199.0,2015.0,50.16977019,12.10209394,95100
"POINT (12.34102405 51.50768965)",288.0,DE,PVA,Serbitz,587.0,2015.0,51.50768965,12.34102405,04509
"POINT (10.8267397 50.19596561)",289.0,DE,PVA,Seßlach,22.0,2025.0,50.19596561,10.8267397,96145
"POINT (12.11101674 51.52399237)",290.0,DE,PVA,Sietzsch,986.0,2012.0,51.52399237,12.11101674,06188
"POINT (12.11101674 51.52399237)",290.0,DE,PVA,Sietzsch,986.0,2012.0,51.52399237,12.11101674,06188
"POINT (12.11101674 51.52399237)",290.0,DE,PVA,Sietzsch,986.0,2012.0,51.52399237,12.11101674,06188
"POINT (12.11101674 51.52399237)",290.0,DE,PVA,Sietzsch,986.0,2012.0,51.52399237,12.11101674,06188
"POINT (12.11101674 51.52399237)",290.0,DE,PVA,Sietzsch,986.0,2012.0,51.52399237,12.11101674,06188
"POINT (12.11101674 51.52399237)",290.0,DE,PVA,Sietzsch,986.0,2012.0,51.52399237,12.11101674,06188
"POINT (12.11101674 51.52399237)",290.0,DE,PVA,Sietzsch,986.0,2012.0,51.52399237,12.11101674,06188
"POINT (12.11101674 51.52399237)",290.0,DE,PVA,Sietzsch,986.0,2012.0,51.52399237,12.11101674,06188
"POINT (12.11101674 51.52399237)",290.0,DE,PVA,Sietzsch,986.0,2012.0,51.52399237,12.11101674,06188
"POINT (12.04537715 53.2505502)",291.0,DE,PVA,Silmersdorf,787.0,2017.0,53.2505502,12.04537715,16949
"POINT (12.04537715 53.2505502)",291.0,DE,PVA,Silmersdorf,787.0,2017.0,53.2505502,12.04537715,16949
"POINT (10.9982572 48.89573606)",292.0,DE,PVA,Solnhofen,566.0,2023.0,48.89573606,10.9982572,91807
"POINT (9.649749701 54.72461318)",293.0,DE,PVA,Sörup,81.0,2018.0,54.72461318,9.649749701,24966
"POINT (9.649749701 54.72461318)",293.0,DE,PVA,Sörup,81.0,2018.0,54.72461318,9.649749701,24966
"POINT (12.13769113 51.64689214)",294.0,DE,PVA,Spören,366.0,2022.0,51.64689214,12.13769113,06780
"POINT (9.038595646 50.83081576)",295.0,DE,PVA,Stadtallendorf,617.0,2022.0,50.83081576,9.038595646,35260
"POINT (11.59587735 51.84144165)",296.0,DE,PVA,Staßfurt,224.0,2016.0,51.84144165,11.59587735,39418
"POINT (11.58676656 51.83666933)",297.0,DE,PVA,Staßfurt-Löbnitzer Weg,148.0,2022.0,51.83666933,11.58676656,39418
"POINT (12.93955187 53.68214888)",298.0,DE,PVA,Stavenhagen,75.0,2020.0,53.68214888,12.93955187,17153
"POINT (12.93727418 53.67791887)",299.0,DE,PVA,Stavenhagen 2,318.0,2022.0,53.67791887,12.93727418,17153
"POINT (8.866780687 54.7543579)",300.0,DE,PVA,Stedesand,32.0,,54.7543579,8.866780687,25920
"POINT (11.8141876 52.58989597)",301.0,DE,PVA,Stendal,542.0,2023.0,52.58989597,11.8141876,39576
"POINT (11.8141876 52.58989597)",301.0,DE,PVA,Stendal,542.0,2023.0,52.58989597,11.8141876,39576
"POINT (11.8141876 52.58989597)",301.0,DE,PVA,Stendal,542.0,2023.0,52.58989597,11.8141876,39576
"POINT (11.8141876 52.58989597)",301.0,DE,PVA,Stendal,542.0,2023.0,52.58989597,11.8141876,39576
"POINT (10.45993299 53.92469694)",302.0,DE,PVA,Strukdorf,1171.0,2024.0,53.92469694,10.45993299,23815
"POINT (12.51570012 51.39167994)",303.0,DE,PVA,Taucha,525.0,2012.0,51.39167994,12.51570012,04425
"POINT (12.51570012 51.39167994)",303.0,DE,PVA,Taucha,525.0,2012.0,51.39167994,12.51570012,04425
"POINT (12.51570012 51.39167994)",303.0,DE,PVA,Taucha,525.0,2012.0,51.39167994,12.51570012,04425
"POINT (12.51570012 51.39167994)",303.0,DE,PVA,Taucha,525.0,2012.0,51.39167994,12.51570012,04425
"POINT (11.85047177 51.44272518)",304.0,DE,PVA,Teutschenthal,4118.0,2021.0,51.44272518,11.85047177,06179
"POINT (11.84287945 51.44185749)",305.0,DE,PVA,Teutschenthal 3,636.0,2022.0,51.44185749,11.84287945,06179
"POINT (13.56803882 52.23523342)",306.0,DE,PVA,Töpchin,423.0,2014.0,52.23523342,13.56803882,15749
"POINT (12.93132402 51.55983529)",307.0,DE,PVA,Torgau,888.0,2012.0,51.55983529,12.93132402,04860
"POINT (12.93132402 51.55983529)",307.0,DE,PVA,Torgau,888.0,2012.0,51.55983529,12.93132402,04860
"POINT (11.91127358 50.38226931)",308.0,DE,PVA,Trogen,10.0,2019.0,50.38226931,11.91127358,95183
"POINT (11.91127358 50.38226931)",308.0,DE,PVA,Trogen,10.0,2019.0,50.38226931,11.91127358,95183
"POINT (11.91127358 50.38226931)",308.0,DE,PVA,Trogen,10.0,2019.0,50.38226931,11.91127358,95183
"POINT (11.91127358 50.38226931)",308.0,DE,PVA,Trogen,10.0,2019.0,50.38226931,11.91127358,95183
"POINT (11.91127358 50.38226931)",308.0,DE,PVA,Trogen,10.0,2019.0,50.38226931,11.91127358,95183
"POINT (11.91127358 50.38226931)",308.0,DE,PVA,Trogen,10.0,2019.0,50.38226931,11.91127358,95183
"POINT (11.91127358 50.38226931)",308.0,DE,PVA,Trogen,10.0,2019.0,50.38226931,11.91127358,95183
"POINT (11.91127358 50.38226931)",308.0,DE,PVA,Trogen,10.0,2019.0,50.38226931,11.91127358,95183
"POINT (11.91127358 50.38226931)",308.0,DE,PVA,Trogen,10.0,2019.0,50.38226931,11.91127358,95183
"POINT (11.91168031 50.38068306)",309.0,DE,PVA,Trogen 2.1,206.0,2020.0,50.38068306,11.91168031,95183
"POINT (11.91379531 50.38125248)",310.0,DE,PVA,Trogen 3,1136.0,2022.0,50.38125248,11.91379531,95183
"POINT (11.91379531 50.38125248)",310.0,DE,PVA,Trogen 3,1136.0,2022.0,50.38125248,11.91379531,95183
"POINT (11.91379531 50.38125248)",310.0,DE,PVA,Trogen 3,1136.0,2022.0,50.38125248,11.91379531,95183
"POINT (13.6877423 51.84259372)",311.0,DE,PVA,Uckro,693.0,2023.0,51.84259372,13.6877423,15926
"POINT (11.527126 50.13203255)",312.0,DE,PVA,Untersteinach,975.0,2013.0,50.13203255,11.527126,95369
"POINT (11.527126 50.13203255)",312.0,DE,PVA,Untersteinach,975.0,2013.0,50.13203255,11.527126,95369
"POINT (11.527126 50.13203255)",312.0,DE,PVA,Untersteinach,975.0,2013.0,50.13203255,11.527126,95369
"POINT (11.527126 50.13203255)",312.0,DE,PVA,Untersteinach,975.0,2013.0,50.13203255,11.527126,95369
"POINT (11.527126 50.13203255)",312.0,DE,PVA,Untersteinach,975.0,2013.0,50.13203255,11.527126,95369
"POINT (11.527126 50.13203255)",312.0,DE,PVA,Untersteinach,975.0,2013.0,50.13203255,11.527126,95369
"POINT (11.527126 50.13203255)",312.0,DE,PVA,Untersteinach,975.0,2013.0,50.13203255,11.527126,95369
"POINT (11.527126 50.13203255)",312.0,DE,PVA,Untersteinach,975.0,2013.0,50.13203255,11.527126,95369
"POINT (11.527126 50.13203255)",312.0,DE,PVA,Untersteinach,975.0,2013.0,50.13203255,11.527126,95369
"POINT (11.52655657 50.1317275)",313.0,DE,PVA,Untersteinach 2,6.0,2023.0,50.1317275,11.52655657,95369
"POINT (11.17523443 53.85593374)",314.0,DE,PVA,Upahl,74.0,2019.0,53.85593374,11.17523443,23936
"POINT (11.3612524 52.32259321)",315.0,DE,PVA,Vahldorf,581.0,2015.0,52.32259321,11.3612524,39345
"POINT (11.6701495 49.26427118)",316.0,DE,PVA,Velburg-Hollerstetten,997.0,2020.0,49.26427118,11.6701495,92355
"POINT (11.6701495 49.26427118)",316.0,DE,PVA,Velburg-Hollerstetten,997.0,2020.0,49.26427118,11.6701495,92355
"POINT (11.6701495 49.26427118)",316.0,DE,PVA,Velburg-Hollerstetten,997.0,2020.0,49.26427118,11.6701495,92355
"POINT (11.6701495 49.26427118)",316.0,DE,PVA,Velburg-Hollerstetten,997.0,2020.0,49.26427118,11.6701495,92355
"POINT (11.6701495 49.26427118)",316.0,DE,PVA,Velburg-Hollerstetten,997.0,2020.0,49.26427118,11.6701495,92355
"POINT (11.6701495 49.26427118)",316.0,DE,PVA,Velburg-Hollerstetten,997.0,2020.0,49.26427118,11.6701495,92355
"POINT (11.6701495 49.26427118)",316.0,DE,PVA,Velburg-Hollerstetten,997.0,2020.0,49.26427118,11.6701495,92355
"POINT (11.6701495 49.26427118)",316.0,DE,PVA,Velburg-Hollerstetten,997.0,2020.0,49.26427118,11.6701495,92355
"POINT (11.6701495 49.26427118)",316.0,DE,PVA,Velburg-Hollerstetten,997.0,2020.0,49.26427118,11.6701495,92355
"POINT (11.67275258 49.26166809)",317.0,DE,PVA,Velburg-Mantlach,1687.0,2020.0,49.26166809,11.67275258,92355
"POINT (13.69652771 51.83820101)",318.0,DE,PVA,Walddrehna,5188.0,2012.0,51.83820101,13.69652771,15926
"POINT (9.45556515 54.05288612)",319.0,DE,PVA,Warringholz,112.0,2025.0,54.05288612,9.45556515,25560
"POINT (9.888828974 54.07353634)",320.0,DE,PVA,Wasbek 1 EEG,205.0,2022.0,54.07353634,9.888828974,24647
"POINT (9.887852818 54.06597113)",321.0,DE,PVA,Wasbek 2 PPA,4071.0,2023.0,54.06597113,9.887852818,24647
"POINT (10.33666355 53.94474606)",322.0,DE,PVA,Weede 1,365.0,2025.0,53.94474606,10.33666355,23795
"POINT (11.10945192 52.31513785)",323.0,DE,PVA,Weferlingen,454.0,2015.0,52.31513785,11.10945192,39356
"POINT (11.10945192 52.31513785)",323.0,DE,PVA,Weferlingen,454.0,2015.0,52.31513785,11.10945192,39356
"POINT (11.10945192 52.31513785)",323.0,DE,PVA,Weferlingen,454.0,2015.0,52.31513785,11.10945192,39356
"POINT (11.10945192 52.31513785)",323.0,DE,PVA,Weferlingen,454.0,2015.0,52.31513785,11.10945192,39356
"POINT (11.18987562 51.8838184)",324.0,DE,PVA,Wegeleben,15.0,2013.0,51.8838184,11.18987562,38828
"POINT (11.73566909 50.708348)",325.0,DE,PVA,Weira,382.0,2015.0,50.708348,11.73566909,07806
"POINT (12.98047214 54.27922778)",326.0,DE,PVA,Wendorf,233.0,2015.0,54.27922778,12.98047214,18442
"POINT (12.36395855 50.72902857)",327.0,DE,PVA,Werdau,385.0,2018.0,50.72902857,12.36395855,08412
"POINT (13.72264086 52.6279925)",328.0,DE,PVA,Werneuchen 1+2,352.0,2014.0,52.6279925,13.72264086,16356
"POINT (13.72105461 52.62811451)",329.0,DE,PVA,Werneuchen 3,189.0,2015.0,52.62811451,13.72105461,16356
"POINT (13.72593539 52.62848057)",330.0,DE,PVA,Werneuchen 4,10.0,2020.0,52.62848057,13.72593539,16356
"POINT (13.72593539 52.62848057)",330.0,DE,PVA,Werneuchen 4,10.0,2020.0,52.62848057,13.72593539,16356
"POINT (13.72593539 52.62848057)",330.0,DE,PVA,Werneuchen 4,10.0,2020.0,52.62848057,13.72593539,16356
"POINT (13.72593539 52.62848057)",330.0,DE,PVA,Werneuchen 4,10.0,2020.0,52.62848057,13.72593539,16356
"POINT (13.72593539 52.62848057)",330.0,DE,PVA,Werneuchen 4,10.0,2020.0,52.62848057,13.72593539,16356
"POINT (13.72593539 52.62848057)",330.0,DE,PVA,Werneuchen 4,10.0,2020.0,52.62848057,13.72593539,16356
"POINT (13.72593539 52.62848057)",330.0,DE,PVA,Werneuchen 4,10.0,2020.0,52.62848057,13.72593539,16356
"POINT (13.72593539 52.62848057)",330.0,DE,PVA,Werneuchen 4,10.0,2020.0,52.62848057,13.72593539,16356
"POINT (13.72593539 52.62848057)",330.0,DE,PVA,Werneuchen 4,10.0,2020.0,52.62848057,13.72593539,16356
"POINT (13.72544731 52.62469797)",331.0,DE,PVA,Werneuchen 5,432.0,2021.0,52.62469797,13.72544731,16356
"POINT (13.71946836 52.62567412)",332.0,DE,PVA,Werneuchen-Deponie,322.0,2017.0,52.62567412,13.71946836,16356
"POINT (9.129340639 53.24037725)",333.0,DE,PVA,Westertimke,739.0,2021.0,53.24037725,9.129340639,27412
"POINT (12.18657182 49.90761852)",334.0,DE,PVA,Wiesau-Fürstenhof,934.0,2021.0,49.90761852,12.18657182,95676
"POINT (12.18657182 49.90761852)",334.0,DE,PVA,Wiesau-Fürstenhof,934.0,2021.0,49.90761852,12.18657182,95676
"POINT (12.18405009 49.90664237)",335.0,DE,PVA,Wiesau-Schönhaid,791.0,2021.0,49.90664237,12.18405009,95676
"POINT (12.18405009 49.90664237)",335.0,DE,PVA,Wiesau-Schönhaid,791.0,2021.0,49.90664237,12.18405009,95676
"POINT (12.35403946 51.50421887)",336.0,DE,PVA,Wiesenena,484.0,2013.0,51.50421887,12.35403946,04509
"POINT (12.35403946 51.50421887)",336.0,DE,PVA,Wiesenena,484.0,2013.0,51.50421887,12.35403946,04509
"POINT (12.35403946 51.50421887)",336.0,DE,PVA,Wiesenena,484.0,2013.0,51.50421887,12.35403946,04509
"POINT (12.35403946 51.50421887)",336.0,DE,PVA,Wiesenena,484.0,2013.0,51.50421887,12.35403946,04509
"POINT (8.082654288 53.58858806)",337.0,DE,PVA,Wihelmshaven,1136.0,2021.0,53.58858806,8.082654288,26388
"POINT (8.082654288 53.58858806)",337.0,DE,PVA,Wihelmshaven,1136.0,2021.0,53.58858806,8.082654288,26388
"POINT (8.082654288 53.58858806)",337.0,DE,PVA,Wihelmshaven,1136.0,2021.0,53.58858806,8.082654288,26388
"POINT (9.35834201 53.92743279)",338.0,DE,PVA,Wilster,76.0,2021.0,53.92743279,9.35834201,25554
"POINT (9.35834201 53.92743279)",338.0,DE,PVA,Wilster,76.0,2021.0,53.92743279,9.35834201,25554
"POINT (11.59571158 53.90534532)",339.0,DE,PVA,Wismar,859.0,2011.0,53.90534532,11.59571158,23970
"POINT (11.59571158 53.90534532)",339.0,DE,PVA,Wismar,859.0,2011.0,53.90534532,11.59571158,23970
"POINT (11.72497754 50.09155065)",340.0,DE,PVA,Witzleshofen,544.0,2015.0,50.09155065,11.72497754,95482
"POINT (11.72497754 50.09155065)",340.0,DE,PVA,Witzleshofen,544.0,2015.0,50.09155065,11.72497754,95482
"POINT (11.72497754 50.09155065)",340.0,DE,PVA,Witzleshofen,544.0,2015.0,50.09155065,11.72497754,95482
"POINT (11.72497754 50.09155065)",340.0,DE,PVA,Witzleshofen,544.0,2015.0,50.09155065,11.72497754,95482
"POINT (13.331224 53.61771128)",341.0,DE,PVA,Woggersin,557.0,2015.0,53.61771128,13.331224,17039
"POINT (13.331224 53.61771128)",341.0,DE,PVA,Woggersin,557.0,2015.0,53.61771128,13.331224,17039
"POINT (13.35400097 53.61771128)",342.0,DE,PVA,Woggersin 2,42.0,2021.0,53.61771128,13.35400097,17039
"POINT (13.35400097 53.61771128)",342.0,DE,PVA,Woggersin 2,42.0,2021.0,53.61771128,13.35400097,17039
"POINT (13.56025981 53.77211373)",343.0,DE,PVA,Wusseken,1923.0,2018.0,53.77211373,13.56025981,17392
"POINT (13.56448982 53.76788372)",344.0,DE,PVA,Wusseken 3,209.0,2019.0,53.76788372,13.56448982,17392
"POINT (13.3068555 51.37289114)",345.0,DE,PVA,Zeithain,7252.0,2018.0,51.37289114,13.3068555,01619
"POINT (13.31222436 51.37557557)",346.0,DE,PVA,Zeithain 8,1246.0,2023.0,51.37557557,13.31222436,01619
"POINT (13.29855818 51.37118287)",347.0,DE,PVA,Zeithain 9,21.0,2024.0,51.37118287,13.29855818,01619
"POINT (12.48405478 50.70714601)",348.0,DE,PVA,Zwickau 2,277.0,2024.0,50.70714601,12.48405478,08056
"POINT (12.53053169 50.72662567)",349.0,DE,PVA,Zwickau Gärtnerei,512.0,2022.0,50.72662567,12.53053169,08066
"POINT (12.53053169 50.72662567)",349.0,DE,PVA,Zwickau Gärtnerei,512.0,2022.0,50.72662567,12.53053169,08066
"POINT (12.53053169 50.72662567)",349.0,DE,PVA,Zwickau Gärtnerei,512.0,2022.0,50.72662567,12.53053169,08066
"POINT (12.53053169 50.72662567)",349.0,DE,PVA,Zwickau Gärtnerei,512.0,2022.0,50.72662567,12.53053169,08066
"POINT (12.09935039 51.44741013)",350.0,DE,PVA,Zwintschöna 1+2,359.0,2015.0,51.44741013,12.09935039,06184
"POINT (12.35924563 51.52894816)",351.0,DE,PVA,Zwochau,374.0,2013.0,51.52894816,12.35924563,04509
